{
  "elements": [
     {
      "type": "node",
      "id": 327775937,
      "lat": 51.1362563,
      "lon": 2.6781456,
      "tags": {
        "sport": "kitesurfing"
      }
    },
    {
      "type": "node",
      "id": 340617390,
      "lat": 37.5718363,
      "lon": -122.2786183,
      "tags": {
        "leisure": "pitch",
        "sport": "kitesurfing"
      }
    },
    {
      "type": "node",
      "id": 454209465,
      "lat": 41.1969808,
      "lon": 9.3072726,
      "tags": {
        "name": "Porto Liscia",
        "natural": "bay",
        "sport": "kitesurfing",
        "wikidata": "Q49388680"
      }
    },
    {
      "type": "node",
      "id": 458123631,
      "lat": 45.8044157,
      "lon": 10.8431397,
      "tags": {
        "leisure": "sports_centre",
        "name": "Kite Club Malcesine",
        "sport": "kitesurfing"
      }
    },
    {
      "type": "node",
      "id": 741139565,
      "lat": 29.4524636,
      "lon": 32.7514693,
      "tags": {
        "leisure": "sports_centre",
        "name": "Club Mistral",
        "sport": "kitesurfing"
      }
    },
    {
      "type": "node",
      "id": 881850305,
      "lat": 36.349551,
      "lon": 27.9479887,
      "tags": {
        "leisure": "pitch",
        "name": "Meltemi Kiteboarding",
        "sport": "kitesurfing",
        "website": "http://meltemi-kiteboarding.com"
      }
    },
    {
      "type": "node",
      "id": 886005685,
      "lat": 10.9417594,
      "lon": 108.1947283,
      "tags": {
        "addr:city": "Mui Ne, Phan Thiet",
        "addr:housenumber": "52a",
        "addr:postcode": "KP3",
        "addr:street": "Nguyen Dinh Chieu",
        "check_date:currency:XBT": "2023-08-08",
        "currency:XBT": "yes",
        "leisure": "sports_centre",
        "name": "Surf Point Vietnam",
        "phone": "+84 1673422136",
        "sport": "kitesurfing",
        "website": "https://www.surfpoint-vietnam.com/"
      }
    },
    {
      "type": "node",
      "id": 896353589,
      "lat": 41.7130418,
      "lon": 8.815415,
      "tags": {
        "leisure": "pitch",
        "sport": "kitesurfing"
      }
    },
    {
      "type": "node",
      "id": 946788601,
      "lat": 43.387239,
      "lon": 4.8514345,
      "tags": {
        "leisure": "sports_centre",
        "name": "Baie de Carteau",
        "source": "Bing",
        "sport": "kitesurfing"
      }
    },
    {
      "type": "node",
      "id": 946788627,
      "lat": 43.4215723,
      "lon": 4.7306028,
      "tags": {
        "amenity": "training",
        "leisure": "sports_centre",
        "name": "Absolute Kite Boarding",
        "source": "Bing",
        "sport": "kitesurfing",
        "training": "sport"
      }
    },
    {
      "type": "node",
      "id": 975731790,
      "lat": -3.6242372,
      "lon": -38.7320551,
      "tags": {
        "leisure": "sports_centre",
        "name": "Kiteline",
        "sport": "kitesurfing"
      }
    },
    {
      "type": "node",
      "id": 988314317,
      "lat": -3.6252497,
      "lon": -38.7290871,
      "tags": {
        "leisure": "sports_centre",
        "name": "Blue Wind",
        "sport": "kitesurfing"
      }
    },
    {
      "type": "node",
      "id": 1128590012,
      "lat": 44.5327279,
      "lon": 6.4312004,
      "tags": {
        "leisure": "sports_centre",
        "name": "Spot de Boscodon",
        "sport": "kitesurfing"
      }
    },
    {
      "type": "node",
      "id": 1201912548,
      "lat": 64.5954902,
      "lon": 39.7898817,
      "tags": {
        "leisure": "sports_centre",
        "name": "Спортивный клуб виндсерфинга и кайтинга",
        "sport": "kitesurfing"
      }
    },
    {
      "type": "node",
      "id": 1203725438,
      "lat": 44.7546476,
      "lon": -1.1338093,
      "tags": {
        "leisure": "sports_centre",
        "name": "KiteSurf and WindSurf",
        "sport": "kitesurfing"
      }
    },
    {
      "type": "node",
      "id": 1388510775,
      "lat": 53.996244,
      "lon": -10.0545125,
      "tags": {
        "name": "Pure Magic",
        "sport": "kitesurfing",
        "tourism": "hotel",
        "website": "https://puremagic.ie/"
      }
    },
    {
      "type": "node",
      "id": 1722894754,
      "lat": 42.8411453,
      "lon": 3.0431148,
      "tags": {
        "addr:housenumber": "15",
        "addr:street": "Zone Artisanale",
        "amenity": "surf_school",
        "fixme": "ameliorer placement car pas en permanance sur la plage",
        "name": "Sky Fly",
        "phone": "+33 6 75 42 26 91;+33 9 54 48 89 83",
        "sport": "kitesurfing",
        "website": "https://www.sky-fly.com/",
        "wheelchair": "yes",
        "wheelchair:description": "Label Tourisme & Handicap"
      }
    },
    {
      "type": "node",
      "id": 1802084643,
      "lat": 56.7766687,
      "lon": 38.8346433,
      "tags": {
        "leisure": "sports_centre",
        "name": "Cерф-кайт станции «BOARDSOUL»",
        "sport": "kitesurfing",
        "url": "http://www.boardsoul.ru/"
      }
    },
    {
      "type": "node",
      "id": 1867118911,
      "lat": 39.0444327,
      "lon": 8.5489452,
      "tags": {
        "leisure": "sports_centre",
        "name": "Kite Sardegna",
        "sport": "kitesurfing",
        "website": "http://www.kitesardegna.it/index.html",
        "wheelchair": "no"
      }
    },
    {
      "type": "node",
      "id": 2019998067,
      "lat": 47.8474565,
      "lon": 12.4746031,
      "tags": {
        "name": "Kitezone",
        "sport": "kitesurfing"
      }
    },
    {
      "type": "node",
      "id": 2449181508,
      "lat": 43.5449867,
      "lon": 3.9710289,
      "tags": {
        "name": "Axel'Air",
        "shop": "sports",
        "sport": "kitesurfing",
        "website": "https://www.axelair.com/"
      }
    },
    {
      "type": "node",
      "id": 2470903272,
      "lat": 43.6574579,
      "lon": 7.1949749,
      "tags": {
        "leisure": "sports_centre",
        "name": "Spot de Kitesurf de Saint-Laurent Du Var",
        "sport": "kitesurfing"
      }
    },
    {
      "type": "node",
      "id": 2470907668,
      "lat": 43.5351792,
      "lon": 7.038287,
      "tags": {
        "leisure": "sports_centre",
        "name": "Spot de Kitesurf du PalmBeach",
        "sport": "kitesurfing"
      }
    },
    {
      "type": "node",
      "id": 2470911317,
      "lat": 43.4119345,
      "lon": 6.7388512,
      "tags": {
        "leisure": "sports_centre",
        "name": "Spot de Kitesurf de Fréjus",
        "sport": "kitesurfing"
      }
    },
    {
      "type": "node",
      "id": 2505945076,
      "lat": 45.8579973,
      "lon": 9.3692828,
      "tags": {
        "sport": "kitesurfing"
      }
    },
    {
      "type": "node",
      "id": 2615171825,
      "lat": -30.322146,
      "lon": -50.9060349,
      "tags": {
        "name": "Kitesurf",
        "sport": "kitesurfing"
      }
    },
    {
      "type": "node",
      "id": 2657475591,
      "lat": -20.4630491,
      "lon": 57.3200007,
      "tags": {
        "leisure": "pitch",
        "lit": "no",
        "name": "Kite Lagoon Le Morne",
        "sport": "kitesurfing",
        "surface": "water"
      }
    },
    {
      "type": "node",
      "id": 2757405215,
      "lat": 28.7238042,
      "lon": -13.8684933,
      "tags": {
        "addr:city": "Corralejo",
        "addr:postcode": "35660",
        "addr:street": "Avenida Pedro Y Guy Vandaele",
        "name": "Red Shark",
        "opening_hours": "Mo-Sa 09:00-20:00",
        "phone": "+34 928 86 75 48",
        "sport": "kitesurfing",
        "website": "https://redsharkfuerteventura.com/"
      }
    },
    {
      "type": "node",
      "id": 2810442601,
      "lat": 43.5311027,
      "lon": 3.9385249,
      "tags": {
        "name": "Moana Shop",
        "ref:FR:SIRET": "74981600500013",
        "shop": "sports",
        "sport": "kitesurfing",
        "website": "https://www.moanashop.fr/"
      }
    },
    {
      "type": "node",
      "id": 2810442602,
      "lat": 43.5292452,
      "lon": 3.9244789,
      "tags": {
        "name": "Vague et Vent",
        "shop": "sports",
        "sport": "kitesurfing",
        "website": "https://www.moanashop.fr/"
      }
    },
    {
      "type": "node",
      "id": 2954119219,
      "lat": 43.505813,
      "lon": 4.1383153,
      "tags": {
        "contact:website": "http://www.club30kite.com/",
        "leisure": "sports_centre",
        "name": "Club30kite",
        "source": "survey2014",
        "sport": "kitesurfing"
      }
    },
    {
      "type": "node",
      "id": 3075523753,
      "lat": 39.7828122,
      "lon": 3.134735,
      "tags": {
        "leisure": "sports_centre",
        "name": "Kitesurf School",
        "sport": "kitesurfing"
      }
    },
    {
      "type": "node",
      "id": 3100748427,
      "lat": 54.4141446,
      "lon": 11.1961511,
      "tags": {
        "addr:city": "Fehmarn",
        "addr:place": "Burgtiefe",
        "name": "Kiteschule Kitesurf-guide",
        "phone": "+49 171 9267893",
        "sport": "kitesurfing",
        "website": "https://www.kitesurf-guide.de/"
      }
    },
    {
      "type": "node",
      "id": 3294254061,
      "lat": 16.1620568,
      "lon": -22.909216,
      "tags": {
        "name": "Kitekriol",
        "opening_hours": "10:00-18:00",
        "rental": "kitesurfing",
        "sport": "kitesurfing"
      }
    },
    {
      "type": "node",
      "id": 3300486040,
      "lat": 16.1622854,
      "lon": -22.9111652,
      "tags": {
        "sport": "kitesurfing"
      }
    },
    {
      "type": "node",
      "id": 3528434403,
      "lat": 36.1867374,
      "lon": -6.0268693,
      "tags": {
        "name": "Caños de Meca",
        "sport": "kitesurfing"
      }
    },
    {
      "type": "node",
      "id": 3587834913,
      "lat": -6.2669846,
      "lon": 39.5361435,
      "tags": {
        "club": "sport",
        "name": "East African Extreme Kite",
        "sport": "kitesurfing"
      }
    },
    {
      "type": "node",
      "id": 3700719130,
      "lat": 53.4184159,
      "lon": 7.0139556,
      "tags": {
        "name": "Kite-/Windsurfschule Windloop Emden",
        "sport": "kitesurfing"
      }
    },
    {
      "type": "node",
      "id": 3704904424,
      "lat": -4.0320979,
      "lon": 39.7194934,
      "tags": {
        "name": "pepea kite surfing",
        "sport": "kitesurfing"
      }
    },
    {
      "type": "node",
      "id": 3713592379,
      "lat": 5.1785345,
      "lon": -52.6487756,
      "tags": {
        "name": "Kite Spot Kourou",
        "sport": "kitesurfing"
      }
    },
    {
      "type": "node",
      "id": 3923196413,
      "lat": -6.3355025,
      "lon": 39.5538631,
      "tags": {
        "leisure": "sports_centre",
        "name": "Pilipili Uhuru Kite Zanzibar",
        "sport": "kitesurfing",
        "website": "https://www.uhurukite-zanzibar.com/"
      }
    },
    {
      "type": "node",
      "id": 3946481974,
      "lat": 56.1058433,
      "lon": 8.1698628,
      "tags": {
        "lifeguard": "no",
        "name": "Kloster Surfspot",
        "natural": "beach",
        "sport": "kitesurfing"
      }
    },
    {
      "type": "node",
      "id": 4038341785,
      "lat": 41.8249926,
      "lon": 12.2064746,
      "tags": {
        "name": "Federazione Sportiva Kitesurf Italia",
        "phone": "+39 347 577 8528",
        "sport": "kitesurfing"
      }
    },
    {
      "type": "node",
      "id": 4046852258,
      "lat": 53.3102228,
      "lon": -6.2329622,
      "tags": {
        "club": "sport",
        "name": "UCD Kitesurf",
        "sport": "kitesurfing"
      }
    },
    {
      "type": "node",
      "id": 4054654772,
      "lat": 47.9387146,
      "lon": 7.0258717,
      "tags": {
        "description": "Zone de snowkite du Markstein, Plateau du Steinlebach, praticable par vents NE, E, W, NW . Vents dominants NE, SW (perturbé) .",
        "leisure": "pitch",
        "name": "Snowkite Markstein",
        "sport": "kitesurfing",
        "surface": "ground",
        "website": "http://lavl.free.fr/site-parapente-vosges/Markstein-Snow-Kite.html"
      }
    },
    {
      "type": "node",
      "id": 4054670024,
      "lat": 47.9278698,
      "lon": 7.014839,
      "tags": {
        "description": "Zone de snowkite du Markstein, Dôme du Treh, praticable par toutes orientations du vent . Vents dominants SW, NE .",
        "leisure": "pitch",
        "name": "Snowkite Markstein",
        "sport": "kitesurfing",
        "surface": "ground",
        "website": "http://lavl.free.fr/site-parapente-vosges/Markstein-Snow-Kite.html"
      }
    },
    {
      "type": "node",
      "id": 4170335072,
      "lat": 45.7167982,
      "lon": -121.5260456,
      "tags": {
        "leisure": "sports_centre",
        "name": "Kite surfing lessons",
        "source": "visited site",
        "sport": "kitesurfing"
      }
    },
    {
      "type": "node",
      "id": 4190084560,
      "lat": 40.7998367,
      "lon": 9.6710701,
      "tags": {
        "sport": "kitesurfing"
      }
    },
    {
      "type": "node",
      "id": 4190463345,
      "lat": 40.5952907,
      "lon": 9.754733,
      "tags": {
        "sport": "kitesurfing"
      }
    },
    {
      "type": "node",
      "id": 4215186934,
      "lat": 46.1189603,
      "lon": 12.3516921,
      "tags": {
        "addr:city": "Farra d'Alpago",
        "addr:street": "Viale al Lago",
        "description": "corsi di kite IKO PROGRESSION da maggio a settembre",
        "leisure": "sports_centre",
        "name": "SX scuola kite Lago di Santa Croce",
        "opening_hours": "09:00-18:00",
        "sport": "kitesurfing",
        "sport_1": "SUP",
        "website": "http://www.scuolakitelagosantacroce.it"
      }
    },
    {
      "type": "node",
      "id": 4232292103,
      "lat": 16.5971535,
      "lon": -22.9106484,
      "tags": {
        "leisure": "sports_centre",
        "name": "Kook Proof Activity Center",
        "sport": "kitesurfing"
      }
    },
    {
      "type": "node",
      "id": 4236313681,
      "lat": 47.8960608,
      "lon": 12.5273848,
      "tags": {
        "name": "KBC Kite Boarding Chiemsee e.V.",
        "sport": "kitesurfing",
        "website": "https://www.chiemsee-kiten.de/"
      }
    },
    {
      "type": "node",
      "id": 4237988697,
      "lat": 47.9301427,
      "lon": 12.4771051,
      "tags": {
        "name": "Kiteboarding Chiemsee e.V.",
        "sport": "kitesurfing",
        "website": "https://www.chiemsee-kiten.de/"
      }
    },
    {
      "type": "node",
      "id": 4299090013,
      "lat": 49.1289791,
      "lon": 10.7175796,
      "tags": {
        "name": "Kitesurf Spot Westufer",
        "natural": "beach",
        "sport": "kitesurfing"
      }
    },
    {
      "type": "node",
      "id": 4299090272,
      "lat": 52.9362065,
      "lon": 5.4023878,
      "tags": {
        "name": "Kitesurf Spot Hindeloopen",
        "sport": "kitesurfing"
      }
    },
    {
      "type": "node",
      "id": 4299090273,
      "lat": 52.8503703,
      "lon": 5.482256,
      "tags": {
        "name": "Kitesurf Spot Mirnser Klif",
        "sport": "kitesurfing"
      }
    },
    {
      "type": "node",
      "id": 4299104622,
      "lat": 42.9708981,
      "lon": 3.018115,
      "tags": {
        "name": "Kitesurf Spot La Palme",
        "sport": "kitesurfing"
      }
    },
    {
      "type": "node",
      "id": 4370386790,
      "lat": 37.7776269,
      "lon": -122.4101199,
      "tags": {
        "name": "Best Kiteboarding",
        "shop": "sports",
        "sport": "kitesurfing",
        "website": "https://www.bestkiteboarding.com/en-us/imprint/"
      }
    },
    {
      "type": "node",
      "id": 4380827466,
      "lat": 60.2687423,
      "lon": 28.9240601,
      "tags": {
        "leisure": "sports_centre",
        "name": "кайт спот \"Жёлтая бухта\"",
        "sport": "kitesurfing"
      }
    },
    {
      "type": "node",
      "id": 4390731413,
      "lat": 44.9072404,
      "lon": 5.6710912,
      "tags": {
        "description": "Ecole de kitesurf et hydrofoil",
        "leisure": "sports_centre",
        "name": "Freekite",
        "phone": "+33 6 26 90 28 15",
        "sport": "kitesurfing",
        "website": "http://www.freekiteschool.com/"
      }
    },
    {
      "type": "node",
      "id": 4390731420,
      "lat": 44.907276,
      "lon": 5.6710745,
      "tags": {
        "addr:city": "Treffort",
        "addr:postcode": "38650",
        "addr:street": "Sous Jullières",
        "description": "Ecole de kitesurf",
        "leisure": "sports_centre",
        "name": "Teknikite",
        "phone": "+33 6 19 41 28 27",
        "sport": "kitesurfing",
        "website": "https://www.teknikite.fr/"
      }
    },
    {
      "type": "node",
      "id": 4408174136,
      "lat": 55.4230317,
      "lon": 8.3843996,
      "tags": {
        "contact:website": "https://clubfanoe.dk/",
        "name": "Kites & Coffee",
        "opening_hours": "Mo-Su 09:00-17:00",
        "phone": "+45 36 92 56 66",
        "shop": "sports",
        "sport": "kitesurfing",
        "website": "https://clubfanoe.dk/"
      }
    },
    {
      "type": "node",
      "id": 4409310492,
      "lat": 42.0407657,
      "lon": 3.193264,
      "tags": {
        "name": "eoliskite",
        "shop": "sports",
        "sport": "kitesurfing"
      }
    },
    {
      "type": "node",
      "id": 4508453364,
      "lat": 52.4831488,
      "lon": 4.5777761,
      "tags": {
        "name": "Wijk aan Zee Bunker",
        "sport": "kitesurfing"
      }
    },
    {
      "type": "node",
      "id": 4508456414,
      "lat": 52.4701579,
      "lon": 4.5669325,
      "tags": {
        "name": "Wijk aan zee: Pier",
        "sport": "kitesurfing"
      }
    },
    {
      "type": "node",
      "id": 4508458788,
      "lat": 52.4576685,
      "lon": 4.5547375,
      "tags": {
        "name": "IJmuiden",
        "sport": "kitesurfing"
      }
    },
    {
      "type": "node",
      "id": 4508462925,
      "lat": 52.6327463,
      "lon": 5.1208992,
      "tags": {
        "name": "Schellinkhout",
        "sport": "kitesurfing"
      }
    },
    {
      "type": "node",
      "id": 4564504589,
      "lat": 7.7985173,
      "lon": 98.3362977,
      "tags": {
        "addr:street": "Viset Road",
        "name": "KiteZone Kitesurfing",
        "name:en": "KiteZone Kitesurfing",
        "name:th": "KiteZone Kitesurfing",
        "shop": "sports",
        "sport": "kitesurfing",
        "surfboard:rental": "yes",
        "website": "https://kitesurfthailand.com"
      }
    },
    {
      "type": "node",
      "id": 4579195131,
      "lat": 12.3447896,
      "lon": 99.9977917,
      "tags": {
        "email": "yodakiteschool@gmail.com",
        "name": "Yoda Kite School",
        "name:en": "Yoda Kite School",
        "phone": "+66087176428",
        "shop": "water_sports",
        "sport": "kitesurfing"
      }
    },
    {
      "type": "node",
      "id": 4783651171,
      "lat": 36.011977,
      "lon": -5.610401,
      "tags": {
        "fixme": "potential duplicate of https://www.openstreetmap.org/way/626709779",
        "sport": "kitesurfing"
      }
    },
    {
      "type": "node",
      "id": 4784757521,
      "lat": 23.1934126,
      "lon": -81.1210378,
      "tags": {
        "addr:city": "Varadero",
        "addr:housenumber": "Km17",
        "addr:street": "Autopista Sur",
        "email": "caribbefinanza@gmail.com",
        "mobile": "+53 59044875",
        "name": "Escuela de Kiteboarding Caribbean Riders",
        "name:en": "Caribbean Riders Kiteboarding school",
        "opening_hours": "Mo-Su 10:00-18:00",
        "payment:cash": "yes",
        "shop": "sports",
        "sport": "kitesurfing",
        "website": "https://varaderokiteschool.com/"
      }
    },
    {
      "type": "node",
      "id": 4805721566,
      "lat": 28.1357762,
      "lon": -14.2447665,
      "tags": {
        "internet_access": "wlan",
        "internet_access:fee": "no",
        "name": "René Egli Center - Windsurf + Kitesurf + Wing-Foil",
        "shop": "water_sports",
        "sport": "kitesurfing"
      }
    },
    {
      "type": "node",
      "id": 4846420786,
      "lat": -31.7724788,
      "lon": -52.2264665,
      "tags": {
        "name": "Pro Wind",
        "shop": "sports",
        "sport": "kitesurfing"
      }
    },
    {
      "type": "node",
      "id": 4869124424,
      "lat": 40.0357752,
      "lon": 18.0151302,
      "tags": {
        "email": "info@kitesurf24.it",
        "leisure": "pitch",
        "name": "Salento Coast Ovest Kitesurf",
        "phone:mobile": "+39 338 8389343",
        "sport": "kitesurfing",
        "website": "https://www.kitesurf24.it/"
      }
    },
    {
      "type": "node",
      "id": 4936530696,
      "lat": 42.8961479,
      "lon": 10.7835805,
      "tags": {
        "leisure": "sports_centre",
        "name": "Surf Relax",
        "opening_hours": "09:00 - 19:00",
        "sport": "kitesurfing",
        "website": "http://surfrelax.it/"
      }
    },
    {
      "type": "node",
      "id": 4993126743,
      "lat": 34.676027,
      "lon": 33.041241,
      "tags": {
        "name": "Kitehouse Cyprus",
        "name:en": "Kitehouse Cyprus",
        "name:ru": "Кайт оборудование",
        "shop": "outdoor",
        "sport": "kitesurfing"
      }
    },
    {
      "type": "node",
      "id": 5032079022,
      "lat": 10.9424833,
      "lon": 108.1958841,
      "tags": {
        "addr:housenumber": "22",
        "addr:postcode": "801090",
        "addr:street": "Nguyễn Đình Chiểu",
        "email": "info@kitefamily.ru",
        "leisure": "sports_centre",
        "name:ru": "KITEPIRATE & KITEFAMILY кайт серф школа",
        "opening_hours": "Mo-Su 10:00-17:00",
        "operator": "Евгений",
        "phone": "+84-121-707-44-86",
        "sport": "kitesurfing",
        "website": "https://kitefamily.ru/"
      }
    },
    {
      "type": "node",
      "id": 5046352966,
      "lat": 12.1271743,
      "lon": -68.824056,
      "tags": {
        "description": "Kiteschool and Kiteshop at the St Joris Bay",
        "email": "info@awasalu-kiteboarding.com",
        "leisure": "sports_centre",
        "name": "Awa Salu kiteboarding, kitesurf school and rental",
        "phone": "+599 9 510 8264",
        "reservation": "recommended",
        "sport": "kitesurfing",
        "toilets": "no",
        "website": "https://awasalu-kiteboarding.com/",
        "wheelchair": "no"
      }
    },
    {
      "type": "node",
      "id": 5059236526,
      "lat": 38.8470487,
      "lon": 0.1115382,
      "tags": {
        "leisure": "sports_centre",
        "name": "Kiteschool Costablanca",
        "name:es": "Costa Blanca Kiteschool",
        "shop": "sports",
        "sport": "kitesurfing",
        "website": "https://www.costablancakiteschool.com/"
      }
    },
    {
      "type": "node",
      "id": 5132200221,
      "lat": 45.3319753,
      "lon": 35.3919761,
      "tags": {
        "leisure": "pitch",
        "sport": "kitesurfing"
      }
    },
    {
      "type": "node",
      "id": 5166402057,
      "lat": 56.1409138,
      "lon": 10.6989328,
      "tags": {
        "sport": "kitesurfing"
      }
    },
    {
      "type": "node",
      "id": 5239357494,
      "lat": -21.3429277,
      "lon": 55.4659714,
      "tags": {
        "name": "Spot de kitesurfing de Saint-Pierre",
        "sport": "kitesurfing"
      }
    },
    {
      "type": "node",
      "id": 5254757688,
      "lat": -5.0907327,
      "lon": -36.275493,
      "tags": {
        "leisure": "sports_centre",
        "name": "Kite & Surfcenter",
        "sport": "kitesurfing"
      }
    },
    {
      "type": "node",
      "id": 5260860438,
      "lat": -4.5259227,
      "lon": -37.7032909,
      "tags": {
        "leisure": "sports_centre",
        "name": "WindFun",
        "sport": "kitesurfing"
      }
    },
    {
      "type": "node",
      "id": 5311879225,
      "lat": 42.1495593,
      "lon": 3.1151449,
      "tags": {
        "sport": "kitesurfing"
      }
    },
    {
      "type": "node",
      "id": 5315025275,
      "lat": 51.8436435,
      "lon": 16.6076035,
      "tags": {
        "leisure": "fitness_centre",
        "name": "AreaSports.pl",
        "sport": "kitesurfing"
      }
    },
    {
      "type": "node",
      "id": 5559949603,
      "lat": -34.8199851,
      "lon": -57.9664853,
      "tags": {
        "name": "Rotonda de Punta Lara Kite Spot",
        "sport": "kitesurfing"
      }
    },
    {
      "type": "node",
      "id": 5559949614,
      "lat": -35.0307961,
      "lon": -57.5021095,
      "tags": {
        "name": "ADENAM",
        "sport": "kitesurfing"
      }
    },
    {
      "type": "node",
      "id": 5559949831,
      "lat": -35.55823,
      "lon": -58.0403904,
      "tags": {
        "name": "Lagunita de Chauipe",
        "sport": "kitesurfing"
      }
    },
    {
      "type": "node",
      "id": 5559949832,
      "lat": -35.5615497,
      "lon": -58.0366372,
      "tags": {
        "sport": "kitesurfing"
      }
    },
    {
      "type": "node",
      "id": 5559949845,
      "lat": -35.5668661,
      "lon": -58.0583247,
      "tags": {
        "sport": "kitesurfing"
      }
    },
    {
      "type": "node",
      "id": 5559949846,
      "lat": -35.6213126,
      "lon": -58.0258046,
      "tags": {
        "sport": "kitesurfing"
      }
    },
    {
      "type": "node",
      "id": 5559949847,
      "lat": -35.5932234,
      "lon": -58.052471,
      "tags": {
        "sport": "kitesurfing"
      }
    },
    {
      "type": "node",
      "id": 5559949872,
      "lat": -36.2958631,
      "lon": -56.7761878,
      "tags": {
        "name": "Punta Rasa kitesurf spot",
        "sport": "kitesurfing"
      }
    },
    {
      "type": "node",
      "id": 5559949885,
      "lat": -36.3696083,
      "lon": -56.7114673,
      "tags": {
        "sport": "kitesurfing"
      }
    },
    {
      "type": "node",
      "id": 5559949890,
      "lat": -36.3965806,
      "lon": -56.7041313,
      "tags": {
        "sport": "kitesurfing"
      }
    },
    {
      "type": "node",
      "id": 5623646901,
      "lat": -19.9903498,
      "lon": 57.6327533,
      "tags": {
        "leisure": "pitch",
        "sport": "kitesurfing"
      }
    },
    {
      "type": "node",
      "id": 5735641450,
      "lat": 54.1513254,
      "lon": 13.6487243,
      "tags": {
        "addr:city": "Lubmin",
        "addr:country": "DE",
        "addr:housenumber": "5",
        "addr:postcode": "17509",
        "addr:street": "Freesendorfer Weg",
        "amenity": "surf_school",
        "contact:phone": "+49 30 440 24213",
        "contact:website": "https://www.ostsee-kiteschule.com/",
        "name": "Ostsee Kiteschule",
        "sport": "kitesurfing"
      }
    },
    {
      "type": "node",
      "id": 5793955256,
      "lat": 60.1216015,
      "lon": 10.1895377,
      "tags": {
        "name": "Røsholmstranda",
        "sport": "kitesurfing"
      }
    },
    {
      "type": "node",
      "id": 5793955257,
      "lat": 59.020083,
      "lon": 5.591719,
      "tags": {
        "name": "Sande",
        "sport": "kitesurfing"
      }
    },
    {
      "type": "node",
      "id": 5793955258,
      "lat": 59.3055539,
      "lon": 10.6896671,
      "tags": {
        "alt_name": "Nesetstranda",
        "name": "Danmarkstranda",
        "ref:windeye": "-KPnfw2X-_jtuSQ1n0cM",
        "sport": "kitesurfing",
        "wind:from": "155",
        "wind:to": "231"
      }
    },
    {
      "type": "node",
      "id": 5793955259,
      "lat": 58.882297,
      "lon": 9.613338,
      "tags": {
        "name": "Jomfruland",
        "sport": "kitesurfing"
      }
    },
    {
      "type": "node",
      "id": 5793955260,
      "lat": 58.85625,
      "lon": 9.572053,
      "tags": {
        "name": "Kubukta",
        "sport": "kitesurfing"
      }
    },
    {
      "type": "node",
      "id": 5793955261,
      "lat": 59.0648419,
      "lon": 10.4441059,
      "tags": {
        "name": "Hvasser syd",
        "sport": "kitesurfing",
        "website": "https://www.vestfoldkiteklubb.no/hvasser"
      }
    },
    {
      "type": "node",
      "id": 5793955262,
      "lat": 59.747223,
      "lon": 10.267636,
      "tags": {
        "name": "Gillhusodden",
        "sport": "kitesurfing"
      }
    },
    {
      "type": "node",
      "id": 5793955263,
      "lat": 62.510812,
      "lon": 6.064367,
      "tags": {
        "alt_name": "Giskebrua",
        "name": "Brusanden",
        "sport": "kitesurfing"
      }
    },
    {
      "type": "node",
      "id": 5793955264,
      "lat": 59.337649,
      "lon": 10.4858547,
      "tags": {
        "name": "Feskjær",
        "ref:windeye": "-KcyDGjOcUsA-rZv2crX",
        "ref:yr": "/Vestfold/Tønsberg/Feskjær",
        "source": "WindEye;Strava heatmap",
        "sport": "kitesurfing",
        "website": "https://www.vestfoldkiteklubb.no/feskjaer",
        "wind:from": "0",
        "wind:to": "157"
      }
    },
    {
      "type": "node",
      "id": 5793955265,
      "lat": 59.0358625,
      "lon": 10.0537477,
      "tags": {
        "name": "Hvittensand",
        "sport": "kitesurfing",
        "website": "https://www.vestfoldkiteklubb.no/hvittensand"
      }
    },
    {
      "type": "node",
      "id": 5793955266,
      "lat": 59.0324981,
      "lon": 11.0092631,
      "tags": {
        "name": "Ørekroken",
        "sport": "kitesurfing"
      }
    },
    {
      "type": "node",
      "id": 5793955267,
      "lat": 59.4218288,
      "lon": 10.6351057,
      "tags": {
        "name": "Framnes",
        "sport": "kitesurfing"
      }
    },
    {
      "type": "node",
      "id": 5793955268,
      "lat": 59.4486507,
      "lon": 10.6158166,
      "tags": {
        "name": "Refsnes",
        "sport": "kitesurfing"
      }
    },
    {
      "type": "node",
      "id": 5793955269,
      "lat": 59.298224,
      "lon": 10.6664962,
      "tags": {
        "name": "Store Sletter",
        "sport": "kitesurfing"
      }
    },
    {
      "type": "node",
      "id": 5793955270,
      "lat": 59.6097784,
      "lon": 10.4141186,
      "tags": {
        "name": "Verket",
        "ref:windeye": "-KPXIceFDaNLSMEftYhJ",
        "sport": "kitesurfing",
        "wind:from": "112",
        "wind:to": "247"
      }
    },
    {
      "type": "node",
      "id": 5808673765,
      "lat": 62.5741484,
      "lon": 6.1186549,
      "tags": {
        "name": "Roaldsanden",
        "sport": "kitesurfing"
      }
    },
    {
      "type": "node",
      "id": 5808673766,
      "lat": 58.456366,
      "lon": 8.884485,
      "tags": {
        "name": "Bjellandstrand",
        "sport": "kitesurfing"
      }
    },
    {
      "type": "node",
      "id": 5808673767,
      "lat": 59.077878,
      "lon": 10.261767,
      "tags": {
        "name": "Langeby",
        "sport": "kitesurfing",
        "website": "https://www.vestfoldkiteklubb.no/langeby"
      }
    },
    {
      "type": "node",
      "id": 5808673768,
      "lat": 58.9885075,
      "lon": 9.8413898,
      "tags": {
        "name": "Omlidstranda",
        "ref:windeye": "-KcyQopMwJwzgGtsi89n",
        "sport": "kitesurfing",
        "website": "https://www.vestfoldkiteklubb.no/omlidstranda"
      }
    },
    {
      "type": "node",
      "id": 5808673769,
      "lat": 58.975056,
      "lon": 9.866045,
      "tags": {
        "name": "Omrestranda",
        "ref:windeye": "-KcySx3hi7dC-whQm9pv",
        "sport": "kitesurfing",
        "website": "https://www.vestfoldkiteklubb.no/omrestranda"
      }
    },
    {
      "type": "node",
      "id": 5808673770,
      "lat": 59.9243383,
      "lon": 11.1317678,
      "tags": {
        "name": "Svellet",
        "piste:type": "snowkite",
        "sport": "kitesurfing"
      }
    },
    {
      "type": "node",
      "id": 5808673771,
      "lat": 59.277751,
      "lon": 10.496234,
      "tags": {
        "name": "Ringshaug",
        "ref:windeye": "-KPXIsN9MoLhHDqlEGPR",
        "ref:yr": "/Vestfold/Tønsberg/Ringshaug",
        "source": "WindEye;Strava heatmap",
        "sport": "kitesurfing",
        "website": "https://www.vestfoldkiteklubb.no/ringshaug",
        "wind:from": "45",
        "wind:to": "157"
      }
    },
    {
      "type": "node",
      "id": 5839918891,
      "lat": 59.6481608,
      "lon": 10.6340844,
      "tags": {
        "name": "Torkilstranda",
        "sport": "kitesurfing"
      }
    },
    {
      "type": "node",
      "id": 5839918892,
      "lat": 59.6412482,
      "lon": 10.6057159,
      "tags": {
        "name": "Storsand",
        "sport": "kitesurfing"
      }
    },
    {
      "type": "node",
      "id": 5839918893,
      "lat": 59.3150008,
      "lon": 10.6814563,
      "tags": {
        "name": "Engholmstranda/Langstranda",
        "sport": "kitesurfing"
      }
    },
    {
      "type": "node",
      "id": 5839934961,
      "lat": 56.3147128,
      "lon": 12.7632793,
      "tags": {
        "source": "Strava",
        "sport": "kitesurfing"
      }
    },
    {
      "type": "node",
      "id": 5873182526,
      "lat": 59.3963,
      "lon": 10.4812,
      "tags": {
        "name": "Rørestrand",
        "ref:windeye": "-Kd9kfYHmhnxcDVObUKv",
        "ref:yr": "/Vestfold/Horten/Rørestrand",
        "sport": "kitesurfing",
        "website": "https://www.vestfoldkiteklubb.no/rorestrand"
      }
    },
    {
      "type": "node",
      "id": 5891641402,
      "lat": 52.3519646,
      "lon": 12.9762965,
      "tags": {
        "seamark:notice:category": "kitesurfing_permitted",
        "seamark:notice:distance_down": "250",
        "seamark:notice:distance_up": "250",
        "seamark:notice:function": "information",
        "seamark:notice:information": "Außerhalb der Betonnung",
        "seamark:type": "notice",
        "sport": "kitesurfing"
      }
    },
    {
      "type": "node",
      "id": 5893576594,
      "lat": 54.3123348,
      "lon": 12.4800112,
      "tags": {
        "sport": "kitesurfing"
      }
    },
    {
      "type": "node",
      "id": 5924793878,
      "lat": 31.4985705,
      "lon": -9.7603647,
      "tags": {
        "addr:city": "Essaouira الصويرة",
        "addr:housenumber": "29",
        "addr:street": "Avenue Moulay Ali Cherif",
        "name": "Ananas Kitesurfing",
        "sport": "kitesurfing",
        "tourism": "yes"
      }
    },
    {
      "type": "node",
      "id": 5940156163,
      "lat": 59.3317886,
      "lon": 10.7173829,
      "tags": {
        "name": "Sildebaugen",
        "sport": "kitesurfing"
      }
    },
    {
      "type": "node",
      "id": 5940156164,
      "lat": 59.389357,
      "lon": 10.6513019,
      "tags": {
        "name": "Fuglevik",
        "sport": "kitesurfing"
      }
    },
    {
      "type": "node",
      "id": 5983663540,
      "lat": 59.2908715,
      "lon": 10.5000173,
      "tags": {
        "name": "Skallevold",
        "sport": "kitesurfing"
      }
    },
    {
      "type": "node",
      "id": 6108966813,
      "lat": -19.74013,
      "lon": 63.466464,
      "tags": {
        "club": "sport",
        "name": "Osmosis",
        "sport": "kitesurfing",
        "website": "https://www.osmosis-kiteboarding.com/"
      }
    },
    {
      "type": "node",
      "id": 6158105982,
      "lat": 63.3299088,
      "lon": 10.214281,
      "tags": {
        "name": "Øysand",
        "sport": "kitesurfing"
      }
    },
    {
      "type": "node",
      "id": 6158111698,
      "lat": 68.1707095,
      "lon": 14.7010803,
      "tags": {
        "fixme": "position",
        "name": "Skrova",
        "sport": "kitesurfing"
      }
    },
    {
      "type": "node",
      "id": 6158116203,
      "lat": 62.5649308,
      "lon": 6.0484671,
      "tags": {
        "name": "Blimssanden",
        "sport": "kitesurfing"
      }
    },
    {
      "type": "node",
      "id": 6170126511,
      "lat": 59.834309,
      "lon": 8.1030713,
      "tags": {
        "name": "Møsvatn",
        "piste:type": "snowkite",
        "ref:windeye": "-KzsW-__Q6EZ7y6eRERW",
        "ref:yr": "/Telemark/Vinje/Møsvatn~67464",
        "sport": "kitesurfing"
      }
    },
    {
      "type": "node",
      "id": 6179478313,
      "lat": 59.5549488,
      "lon": 9.2593074,
      "tags": {
        "name": "Notodden",
        "source": "Strava",
        "sport": "kitesurfing"
      }
    },
    {
      "type": "node",
      "id": 6341182035,
      "lat": 24.2146309,
      "lon": 35.4247941,
      "tags": {
        "leisure": "sports_centre",
        "name": "Wadi Lahami Kitesurfing Center",
        "shop": "kitesurfing",
        "sport": "kitesurfing",
        "website": "https://www.redsea-divingsafari.com/activities/kite-surfing"
      }
    },
    {
      "type": "node",
      "id": 6351517789,
      "lat": 59.2474308,
      "lon": 5.1934862,
      "tags": {
        "name": "Åkrasanden",
        "source": "Strava",
        "sport": "kitesurfing"
      }
    },
    {
      "type": "node",
      "id": 6351517791,
      "lat": 63.4334514,
      "lon": 10.7242656,
      "tags": {
        "name": "Storsand",
        "ref:windeye": "-Kdaz4bO3EiN6i-oDBjY",
        "ref:yr": "/Sør-Trøndelag/Malvik/Midtsandan",
        "source": "WindEye",
        "sport": "kitesurfing"
      }
    },
    {
      "type": "node",
      "id": 6351517792,
      "lat": 63.4917781,
      "lon": 10.7767081,
      "tags": {
        "name": "Vinnesanda",
        "source": "Strava",
        "sport": "kitesurfing"
      }
    },
    {
      "type": "node",
      "id": 6351517793,
      "lat": 63.4743616,
      "lon": 10.8066523,
      "tags": {
        "name": "Velvang Camping",
        "ref:windeye": "-Kdaz9tXUa3cGiHYBIdx",
        "ref:yr": "/Nord-Trøndelag/Stjørdal/Velvangan",
        "source": "WindEye",
        "sport": "kitesurfing"
      }
    },
    {
      "type": "node",
      "id": 6351517794,
      "lat": 69.6643954,
      "lon": 18.9071273,
      "tags": {
        "name": "Langnes",
        "ref:vindsiden": "4047",
        "ref:windeye": "-KdazUsy7id-lGteMOno",
        "ref:yr": "/Troms/Tromsø/Langnes",
        "source": "WindEye;Strava heatmap",
        "sport": "kitesurfing",
        "wind:from": "135",
        "wind:to": "225"
      }
    },
    {
      "type": "node",
      "id": 6351517796,
      "lat": 69.1127901,
      "lon": 19.0658064,
      "tags": {
        "name": "Takvatnet",
        "piste:type": "snowkite",
        "ref:windeye": "-Kdazd7Mhdq3sUdKCLok",
        "ref:yr": "/Troms/Målselv/Takvatnet",
        "source": "WindEye",
        "sport": "kitesurfing"
      }
    },
    {
      "type": "node",
      "id": 6351517800,
      "lat": 63.5836951,
      "lon": 10.6147782,
      "tags": {
        "name": "Frosta-Tautra",
        "ref:windeye": "-Kztp8ClDLDKKcR4zBsF",
        "ref:yr": "/Nord-Trøndelag/Frosta/Tautra",
        "source": "WindEye",
        "sport": "kitesurfing",
        "wind:from": "225",
        "wind:to": "315"
      }
    },
    {
      "type": "node",
      "id": 6360505990,
      "lat": 28.0428781,
      "lon": -16.5410842,
      "tags": {
        "addr:housenumber": "4",
        "addr:street": "Paseo Nuestra Señora de las Mercedes de Roja",
        "check_date": "2024-12-12",
        "kitesurfing:education": "yes",
        "name": "AzulKiteboarding",
        "shop": "water_sports",
        "sport": "kitesurfing"
      }
    },
    {
      "type": "node",
      "id": 6374566379,
      "lat": 58.9786226,
      "lon": 9.9652862,
      "tags": {
        "name": "Kjærstranda",
        "ref:windeye": "-KuNP0rnHwf0YnQDH1rr",
        "source": "WindEye;Strava heatmap",
        "sport": "kitesurfing",
        "wind:from": "112",
        "wind:to": "160"
      }
    },
    {
      "type": "node",
      "id": 6374566380,
      "lat": 68.5772011,
      "lon": 14.7838425,
      "tags": {
        "name": "Flatset",
        "ref:windeye": "-LLQOgFqqv-lYu2yskRM",
        "ref:yr": "/Nordland/Hadsel/Flatset",
        "source": "WindEye;Norge i bilder",
        "sport": "kitesurfing"
      }
    },
    {
      "type": "node",
      "id": 6374566381,
      "lat": 59.0196414,
      "lon": 5.5917835,
      "tags": {
        "name": "Randaberg",
        "ref:windeye": "-Kd-MgdKXjU0oXntOno2",
        "ref:yr": "/Rogaland/Randaberg/Randaberg~24778",
        "source": "WindEye;Strava heatmap",
        "sport": "kitesurfing"
      }
    },
    {
      "type": "node",
      "id": 6374568267,
      "lat": 59.6047951,
      "lon": 10.6143326,
      "tags": {
        "source": "Strava heatmap",
        "sport": "kitesurfing"
      }
    },
    {
      "type": "node",
      "id": 6440136752,
      "lat": 16.62573,
      "lon": -22.9002023,
      "tags": {
        "club": "sport",
        "contact:facebook": "KiteBeachCaboVerdeSalSantaMaria",
        "contact:instagram": "kiteschoolcaboverde",
        "leisure": "sports_centre",
        "name": "Mitu & Djo Kite School",
        "phone": "+238-9943349",
        "sport": "kitesurfing",
        "website": "https://mitudjokiteschoolcaboverde.com"
      }
    },
    {
      "type": "node",
      "id": 6620491493,
      "lat": 46.0633603,
      "lon": -1.0946846,
      "tags": {
        "description": "A partir de 19h en été",
        "sport": "kitesurfing"
      }
    },
    {
      "type": "node",
      "id": 6620579485,
      "lat": 46.7586468,
      "lon": -2.0356143,
      "tags": {
        "description": "Zone délimitée en été",
        "sport": "kitesurfing"
      }
    },
    {
      "type": "node",
      "id": 6677200338,
      "lat": 36.8862091,
      "lon": 27.1619381,
      "tags": {
        "name": "Kitesurfing Kos",
        "sport": "kitesurfing"
      }
    },
    {
      "type": "node",
      "id": 6731704067,
      "lat": 47.6388484,
      "lon": 10.3683611,
      "tags": {
        "sport": "kitesurfing"
      }
    },
    {
      "type": "node",
      "id": 6731704068,
      "lat": 47.6383424,
      "lon": 10.3796478,
      "tags": {
        "sport": "kitesurfing"
      }
    },
    {
      "type": "node",
      "id": 6777922409,
      "lat": 62.5536136,
      "lon": 6.0899877,
      "tags": {
        "name": "Blindheimsvikå",
        "sport": "kitesurfing"
      }
    },
    {
      "type": "node",
      "id": 6777922410,
      "lat": 62.5345292,
      "lon": 6.1306178,
      "tags": {
        "name": "Olmaneset",
        "sport": "kitesurfing"
      }
    },
    {
      "type": "node",
      "id": 6777922411,
      "lat": 62.51159,
      "lon": 6.0397446,
      "tags": {
        "name": "Moloen",
        "sport": "kitesurfing"
      }
    },
    {
      "type": "node",
      "id": 6777922412,
      "lat": 62.509832,
      "lon": 6.0269666,
      "tags": {
        "name": "Kvalneset",
        "sport": "kitesurfing"
      }
    },
    {
      "type": "node",
      "id": 6777922413,
      "lat": 62.4865466,
      "lon": 5.9666061,
      "tags": {
        "name": "Sandvika",
        "sport": "kitesurfing"
      }
    },
    {
      "type": "node",
      "id": 6779118040,
      "lat": 58.0630722,
      "lon": 6.7819869,
      "tags": {
        "source": "Strava",
        "sport": "kitesurfing"
      }
    },
    {
      "type": "node",
      "id": 6779118041,
      "lat": 58.072861,
      "lon": 6.6740226,
      "tags": {
        "name": "Kviljosanden",
        "sport": "kitesurfing"
      }
    },
    {
      "type": "node",
      "id": 6779118042,
      "lat": 58.0963514,
      "lon": 6.5932292,
      "tags": {
        "source": "Strava",
        "sport": "kitesurfing"
      }
    },
    {
      "type": "node",
      "id": 6779118043,
      "lat": 58.0999546,
      "lon": 6.5792334,
      "tags": {
        "source": "Strava",
        "sport": "kitesurfing"
      }
    },
    {
      "type": "node",
      "id": 6779119174,
      "lat": 58.6949317,
      "lon": 5.5452043,
      "tags": {
        "source": "Strava",
        "sport": "kitesurfing"
      }
    },
    {
      "type": "node",
      "id": 6779119175,
      "lat": 58.7162148,
      "lon": 5.5200076,
      "tags": {
        "source": "Strava",
        "sport": "kitesurfing"
      }
    },
    {
      "type": "node",
      "id": 6779119176,
      "lat": 58.7518149,
      "lon": 5.4926732,
      "tags": {
        "source": "Strava",
        "sport": "kitesurfing"
      }
    },
    {
      "type": "node",
      "id": 6779119177,
      "lat": 58.8134195,
      "lon": 5.5454778,
      "tags": {
        "name": "Borestranda",
        "source": "Strava",
        "sport": "kitesurfing"
      }
    },
    {
      "type": "node",
      "id": 6779140596,
      "lat": 58.865426,
      "lon": 9.5903349,
      "tags": {
        "source": "Strava",
        "sport": "kitesurfing"
      }
    },
    {
      "type": "node",
      "id": 7051869444,
      "lat": 38.3391796,
      "lon": 21.8494018,
      "tags": {
        "name": "Kite Surfing",
        "natural": "beach",
        "sport": "kitesurfing"
      }
    },
    {
      "type": "node",
      "id": 7123847711,
      "lat": 58.1385064,
      "lon": 7.0310354,
      "tags": {
        "name": "Kvavik",
        "sport": "kitesurfing"
      }
    },
    {
      "type": "node",
      "id": 7123847712,
      "lat": 58.0741971,
      "lon": 7.8189396,
      "tags": {
        "name": "Høllen",
        "sport": "kitesurfing"
      }
    },
    {
      "type": "node",
      "id": 7123877353,
      "lat": 58.1905575,
      "lon": 8.0704638,
      "tags": {
        "name": "Hamresanden",
        "sport": "kitesurfing"
      }
    },
    {
      "type": "node",
      "id": 7221019055,
      "lat": 12.1275403,
      "lon": -68.8246231,
      "tags": {
        "contact:facebook": "https://www.facebook.com/Nixkitecuracao/",
        "description": "Kiteboarding, kitesurf school",
        "leisure": "sports_centre",
        "name": "Nix kitesurf school and rental",
        "phone": "+599 9 665 2562",
        "sport": "kitesurfing",
        "website": "https://www.nixkitecuracao.com/kite-lessons/"
      }
    },
    {
      "type": "node",
      "id": 7241219176,
      "lat": 16.2319965,
      "lon": -61.3687597,
      "tags": {
        "leisure": "swimming_area",
        "name": "Spot kitesurf Anse du Belley",
        "sport": "kitesurfing"
      }
    },
    {
      "type": "node",
      "id": 7522558069,
      "lat": 39.9956336,
      "lon": 18.0062104,
      "tags": {
        "access": "yes",
        "leisure": "pitch",
        "lit": "no",
        "sport": "kitesurfing",
        "surface": "sand"
      }
    },
    {
      "type": "node",
      "id": 7598855673,
      "lat": 41.3357828,
      "lon": 16.2457681,
      "tags": {
        "sport": "kitesurfing"
      }
    },
    {
      "type": "node",
      "id": 7640628054,
      "lat": 49.3012043,
      "lon": -0.0826993,
      "tags": {
        "club": "sport",
        "name": "Houlgate assise Kite",
        "phone": "+33 6 50 86 25 95",
        "sport": "kitesurfing",
        "website": "https://hak.voileslibrespaysdauge.fr/"
      }
    },
    {
      "type": "node",
      "id": 7707429513,
      "lat": 60.2081092,
      "lon": 8.5589075,
      "tags": {
        "name": "Sønstevatn",
        "sport": "kitesurfing"
      }
    },
    {
      "type": "node",
      "id": 7744365474,
      "lat": 70.07687,
      "lon": 30.0978613,
      "tags": {
        "name": "Ekkerøy",
        "sport": "kitesurfing"
      }
    },
    {
      "type": "node",
      "id": 7773683572,
      "lat": 58.0666518,
      "lon": 6.7343294,
      "tags": {
        "name": "Haviksanden",
        "sport": "kitesurfing"
      }
    },
    {
      "type": "node",
      "id": 7786856583,
      "lat": 59.6030147,
      "lon": 10.4119729,
      "tags": {
        "name": "Trulsestranda",
        "natural": "beach",
        "source": "Drammen kommune",
        "sport": "kitesurfing"
      }
    },
    {
      "type": "node",
      "id": 7834258527,
      "lat": 38.3843353,
      "lon": 21.8459939,
      "tags": {
        "leisure": "beach_resort",
        "name": "Kitesurf spot",
        "sport": "kitesurfing"
      }
    },
    {
      "type": "node",
      "id": 7834988905,
      "lat": 51.248813,
      "lon": 2.9468988,
      "tags": {
        "leisure": "pitch",
        "name": "Kitesurf spot",
        "sport": "kitesurfing"
      }
    },
    {
      "type": "node",
      "id": 7846967890,
      "lat": 59.4355549,
      "lon": 10.4938128,
      "tags": {
        "name": "Karljohansvern",
        "sport": "kitesurfing",
        "website": "https://www.vestfoldkiteklubb.no/karljohannsvern"
      }
    },
    {
      "type": "node",
      "id": 7846967891,
      "lat": 59.075307,
      "lon": 10.3049826,
      "tags": {
        "name": "Trubervika",
        "sport": "kitesurfing",
        "website": "https://www.vestfoldkiteklubb.no/nordre-truber"
      }
    },
    {
      "type": "node",
      "id": 7869138330,
      "lat": 59.0918426,
      "lon": 10.4482824,
      "tags": {
        "name": "Lilleskagen",
        "sport": "kitesurfing",
        "website": "https://www.vestfoldkiteklubb.no/lilleskagen"
      }
    },
    {
      "type": "node",
      "id": 7895008089,
      "lat": 69.7781137,
      "lon": 18.5384631,
      "tags": {
        "name": "Grøtfjord",
        "sport": "kitesurfing"
      }
    },
    {
      "type": "node",
      "id": 7926407164,
      "lat": 58.6489367,
      "lon": 9.1395722,
      "tags": {
        "name": "Rota",
        "note:no": "Kitedoktor.no, spot for kiting mens venter på rep., for viderekommende",
        "sport": "kitesurfing",
        "website": "http://www.kitedoktor.no/kitespot/"
      }
    },
    {
      "type": "node",
      "id": 7939978547,
      "lat": 59.8881586,
      "lon": 10.5928172,
      "tags": {
        "name": "Storøyodden",
        "sport": "kitesurfing"
      }
    },
    {
      "type": "node",
      "id": 7961015084,
      "lat": 62.3627659,
      "lon": 5.6746637,
      "tags": {
        "name": "Remøyholmen",
        "sport": "kitesurfing"
      }
    },
    {
      "type": "node",
      "id": 7961025285,
      "lat": 62.2538604,
      "lon": 5.575819,
      "tags": {
        "alt_name": "Sandangersanden",
        "name": "Gjerdsvika",
        "sport": "kitesurfing"
      }
    },
    {
      "type": "node",
      "id": 7961025286,
      "lat": 62.3443709,
      "lon": 5.8261871,
      "tags": {
        "name": "Osnessanden",
        "sport": "kitesurfing"
      }
    },
    {
      "type": "node",
      "id": 7973030466,
      "lat": 59.7961817,
      "lon": 10.4974687,
      "tags": {
        "name": "Sjøstrand",
        "sport": "kitesurfing"
      }
    },
    {
      "type": "node",
      "id": 7973030467,
      "lat": 59.7431584,
      "lon": 10.5113518,
      "tags": {
        "name": "Ramton",
        "sport": "kitesurfing"
      }
    },
    {
      "type": "node",
      "id": 7973052541,
      "lat": 59.8068089,
      "lon": 10.4949179,
      "tags": {
        "name": "Vollen",
        "sport": "kitesurfing"
      }
    },
    {
      "type": "node",
      "id": 8431319287,
      "lat": 43.4014913,
      "lon": 3.6573764,
      "tags": {
        "club": "sport",
        "name": "Triderland - Kitesurf School & Cruise",
        "sport": "kitesurfing",
        "website": "https://www.triderland.com/"
      }
    },
    {
      "type": "node",
      "id": 8528362192,
      "lat": 55.7231488,
      "lon": 12.6098469,
      "tags": {
        "description": "Kitesurfing spot",
        "name": "Nordhavnstippen",
        "place": "locality",
        "sport": "kitesurfing"
      }
    },
    {
      "type": "node",
      "id": 8764631255,
      "lat": 29.1193284,
      "lon": -13.5472086,
      "tags": {
        "sport": "kitesurfing"
      }
    },
    {
      "type": "node",
      "id": 8826960317,
      "lat": 54.5530047,
      "lon": 82.6183703,
      "tags": {
        "natural": "beach",
        "sport": "kitesurfing"
      }
    },
    {
      "type": "node",
      "id": 8914782891,
      "lat": 60.1305068,
      "lon": 29.9378997,
      "tags": {
        "leisure": "sports_centre",
        "name": "TakeOffSurf",
        "opening_hours": "Mo-Su 10:00-22:00",
        "shop": "rental",
        "sport": "kitesurfing"
      }
    },
    {
      "type": "node",
      "id": 8951413979,
      "lat": 43.4196441,
      "lon": 3.6014155,
      "tags": {
        "amenity": "surf_school",
        "club": "sport",
        "description": "Ecole de kitesurf",
        "leisure": "sports_centre",
        "name": "Fildair",
        "sport": "kitesurfing"
      }
    },
    {
      "type": "node",
      "id": 9105104775,
      "lat": 46.1254542,
      "lon": 9.3457226,
      "tags": {
        "name": "Jordan'Surf & Kitezoo",
        "sport": "kitesurfing",
        "website": "https://www.kitezoo.it/"
      }
    },
    {
      "type": "node",
      "id": 9105104776,
      "lat": 46.1418828,
      "lon": 9.3740936,
      "tags": {
        "name": "Jordan'Surf & Kitezoo Shop",
        "shop": "sports",
        "sport": "kitesurfing",
        "website": "https://www.kitezoo.it/"
      }
    },
    {
      "type": "node",
      "id": 9391469177,
      "lat": 27.3130841,
      "lon": 33.7202391,
      "tags": {
        "club": "sport",
        "name": "Kite Lagoon Golden Beach",
        "sport": "kitesurfing",
        "website": "https://kitelagoon.com/"
      }
    },
    {
      "type": "node",
      "id": 9400514160,
      "lat": 27.3054668,
      "lon": 33.731058,
      "tags": {
        "contact:facebook": "https://www.facebook.com/ParadiseKitesurfRedSea/",
        "contact:instagram": "https://www.instagram.com/paradisekitesurf/",
        "contact:whatsapp": "+20 106 0119626",
        "email": "www.paradisekitesurf3@gmail.com",
        "leisure": "beach_resort",
        "name": "Paradise Kitesurf",
        "name:en": "Paradise Kitesurf",
        "sport": "kitesurfing",
        "website": "https://www.paradisekite.surf/"
      }
    },
    {
      "type": "node",
      "id": 9488815337,
      "lat": -6.2659888,
      "lon": 39.5366604,
      "tags": {
        "club": "sport",
        "description": "Welcome to Kite N Surf Zanzibar, one of the world leading operators in watersports.",
        "name": "Kite N Surf Zanzibar",
        "opening_hours": "Mo-Su 09:00-19:00",
        "phone": "+255773267309",
        "sport": "kitesurfing",
        "website": "https://kitensurfzanzibar.com"
      }
    },
    {
      "type": "node",
      "id": 9789426140,
      "lat": 48.7727677,
      "lon": -122.532922,
      "tags": {
        "description": "Shallow waters, great for learning on twintips. Works best with SW winds, positive but not extremely high tides.",
        "leisure": "slipway",
        "name": "Kitesurf launch",
        "sport": "kitesurfing"
      }
    },
    {
      "type": "node",
      "id": 9792902644,
      "lat": 45.7172928,
      "lon": -121.5109741,
      "tags": {
        "leisure": "slipway",
        "name": "Kitesurf launch",
        "sport": "kitesurfing",
        "website": "http://www.nwkite.com/guides/hood_river_sandbar/"
      }
    },
    {
      "type": "node",
      "id": 9883477914,
      "lat": 46.4349648,
      "lon": -1.6584458,
      "tags": {
        "club": "sport",
        "name": "Oceanplayers",
        "sport": "kitesurfing",
        "website": "https://oceanplayers.fr"
      }
    },
    {
      "type": "node",
      "id": 9955220394,
      "lat": 54.1507468,
      "lon": 13.6479441,
      "tags": {
        "amenity": "surf_centre",
        "name": "Ostsee Kiteschule Coronation Industries",
        "sport": "kitesurfing",
        "website": "https://ostsee-kiteschule.com"
      }
    },
    {
      "type": "node",
      "id": 10114670367,
      "lat": 46.6793933,
      "lon": 37.7384816,
      "tags": {
        "leisure": "fitness_centre",
        "name": "Кайт школа \"HappyKite\"",
        "sport": "kitesurfing"
      }
    },
    {
      "type": "node",
      "id": 10177734373,
      "lat": 59.6987698,
      "lon": 9.8411858,
      "tags": {
        "name": "Fiskumvannet",
        "sport": "kitesurfing"
      }
    },
    {
      "type": "node",
      "id": 10184458936,
      "lat": 12.2927236,
      "lon": -82.9773422,
      "tags": {
        "club": "sport",
        "name": "Kitesurf Corn Island",
        "sport": "kitesurfing",
        "website": "https://kitesurfnicaragua.org/"
      }
    },
    {
      "type": "node",
      "id": 10202864277,
      "lat": 53.6040124,
      "lon": -3.0685267,
      "tags": {
        "fixme": "position and sport type",
        "leisure": "pitch",
        "name": "Kite zone",
        "sport": "kitesurfing"
      }
    },
    {
      "type": "node",
      "id": 10234470140,
      "lat": 46.6748602,
      "lon": 38.2803838,
      "tags": {
        "addr:city": "Ейск",
        "addr:housenumber": "67/1",
        "addr:street": "Красная улица",
        "name": "Kite shop",
        "phone": "+7 967 310-50-06",
        "shop": "sports",
        "sport": "kitesurfing"
      }
    },
    {
      "type": "node",
      "id": 10241815448,
      "lat": 40.7450188,
      "lon": -8.6780933,
      "tags": {
        "lifeguard": "no",
        "name": "Spot Mama Prada",
        "natural": "beach",
        "sport": "kitesurfing",
        "supervised": "no"
      }
    },
    {
      "type": "node",
      "id": 10241886121,
      "lat": 40.7296757,
      "lon": -8.6498966,
      "tags": {
        "leisure": "pitch",
        "sport": "kitesurfing"
      }
    },
    {
      "type": "node",
      "id": 10241950917,
      "lat": 40.6286818,
      "lon": -8.7453451,
      "tags": {
        "leisure": "pitch",
        "name:de": "Kitesurf- und Wingsurfspot Costa Nova (West)",
        "sport": "kitesurfing"
      }
    },
    {
      "type": "node",
      "id": 10241968903,
      "lat": 40.6222,
      "lon": -8.7370353,
      "tags": {
        "leisure": "pitch",
        "name:de": "Kitesurf- und Wingsurfspot Costa Nova (Ost)",
        "sport": "kitesurfing"
      }
    },
    {
      "type": "node",
      "id": 10246202676,
      "lat": 40.6297533,
      "lon": -8.7504131,
      "tags": {
        "leisure": "pitch",
        "name:de": "Kitesurf- und Wingsurfspot Praia do Barra",
        "sport": "kitesurfing"
      }
    },
    {
      "type": "node",
      "id": 10249206864,
      "lat": 40.7533593,
      "lon": -8.7017169,
      "tags": {
        "leisure": "pitch",
        "name:de": "Kitesurfspot Praia do Monte Branco",
        "sport": "kitesurfing"
      }
    },
    {
      "type": "node",
      "id": 10756137332,
      "lat": 39.8335967,
      "lon": -5.3617222,
      "tags": {
        "natural": "beach",
        "sport": "kitesurfing"
      }
    },
    {
      "type": "node",
      "id": 10868959956,
      "lat": 34.6041967,
      "lon": 33.0060663,
      "tags": {
        "lifeguard": "no",
        "natural": "beach",
        "sport": "kitesurfing",
        "supervised": "no"
      }
    },
    {
      "type": "node",
      "id": 10891826405,
      "lat": 43.0383229,
      "lon": 6.1191753,
      "tags": {
        "addr:housenumber": "1",
        "addr:postcode": "83400",
        "addr:street": "Allée des Genêts",
        "amenity": "surf_school",
        "name": "Wing & Kite",
        "phone": "+337 81 12 35 28",
        "sport": "kitesurfing",
        "website": "https://wing-kite.com/"
      }
    },
    {
      "type": "node",
      "id": 11026531203,
      "lat": 12.0444486,
      "lon": -68.2663762,
      "tags": {
        "name": "Kiteboarding Bonaire",
        "sport": "kitesurfing",
        "website": "https://kiteboardingbonaire.com"
      }
    },
    {
      "type": "node",
      "id": 11026531204,
      "lat": 12.0442309,
      "lon": -68.2663065,
      "tags": {
        "name": "Bonaire Kiteschool",
        "sport": "kitesurfing",
        "website": "https://www.bonairekiteschool.com/"
      }
    },
    {
      "type": "node",
      "id": 11047825855,
      "lat": 54.0394361,
      "lon": 11.580926,
      "tags": {
        "addr:street": "Zeltplatz",
        "name": "Kitesurfing Spot",
        "sport": "kitesurfing"
      }
    },
    {
      "type": "node",
      "id": 11097447208,
      "lat": 10.9462924,
      "lon": 108.199427,
      "tags": {
        "addr:housenumber": "44",
        "addr:street": "Nguyễn Đình Chiểu",
        "name:en": "Africa Surf Kite Shop",
        "shop": "sports",
        "sport": "kitesurfing"
      }
    },
    {
      "type": "node",
      "id": 11113351295,
      "lat": 40.2285779,
      "lon": -6.1006282,
      "tags": {
        "natural": "beach",
        "sport": "kitesurfing"
      }
    },
    {
      "type": "node",
      "id": 11119124357,
      "lat": 47.6955332,
      "lon": -3.3468678,
      "tags": {
        "leisure": "sports_centre",
        "name": "You-Kite",
        "sport": "kitesurfing"
      }
    },
    {
      "type": "node",
      "id": 11202349579,
      "lat": 45.8094548,
      "lon": 10.5237356,
      "tags": {
        "leisure": "beach_resort",
        "sport": "kitesurfing"
      }
    },
    {
      "type": "node",
      "id": 11487160718,
      "lat": -6.3426017,
      "lon": 39.5569929,
      "tags": {
        "club": "sport",
        "name": "KiteWorldWide",
        "sport": "kitesurfing",
        "website": "https://kiteworldwide.com/kiteholidays/kitesurfing-in-zanzibar-jambiani/"
      }
    },
    {
      "type": "node",
      "id": 11494937904,
      "lat": 16.6254,
      "lon": -22.8998487,
      "tags": {
        "access": "yes",
        "leisure": "pitch",
        "lit": "no",
        "name": "Kite beach",
        "sport": "kitesurfing",
        "surface": "sand"
      }
    },
    {
      "type": "node",
      "id": 11926182083,
      "lat": 45.0704789,
      "lon": 37.0205317,
      "tags": {
        "addr:floor": "0",
        "internet_access": "wlan",
        "leisure": "sports_centre",
        "name": "Kiteworld",
        "sport": "kitesurfing"
      }
    },
    {
      "type": "node",
      "id": 11945190368,
      "lat": 43.706995,
      "lon": -1.4335514,
      "tags": {
        "addr:city": "Seignosse",
        "addr:housenumber": "12",
        "addr:postcode": "40510",
        "addr:street": "Avenue de la Grande Plage",
        "club": "sport",
        "name": "Sud Landes Kite",
        "phone": "+33 6 58 01 35 02",
        "ref:FR:CRTA": "ASCAQU040V5008K7",
        "sport": "kitesurfing",
        "website": "https://www.sudlandeskite.com/"
      }
    },
    {
      "type": "node",
      "id": 12022160933,
      "lat": 45.0732793,
      "lon": 37.0088578,
      "tags": {
        "access": "private",
        "addr:floor": "1",
        "charge": "400 RUB",
        "check_date": "2024-07-09",
        "fee": "yes",
        "internet_access": "wlan",
        "internet_access:fee": "customers",
        "leisure": "sports_centre",
        "level": "0",
        "name": "Серф-Хата",
        "opening_hours": "09:30-20:00",
        "payment:cash": "yes",
        "payment:credit_cards": "yes",
        "payment:debit_cards": "yes",
        "sport": "kitesurfing",
        "website": "https://surflodge.ru",
        "wheelchair": "limited"
      }
    },
    {
      "type": "node",
      "id": 12089664423,
      "lat": 0.4355455,
      "lon": 9.4171311,
      "tags": {
        "addr:city": "Libreville",
        "addr:postcode": "5000",
        "addr:street": "Boulevard de la Nation",
        "air_conditioning": "no",
        "amenity": "restaurant",
        "bar": "yes",
        "cocktails": "yes",
        "contact:facebook": "Bar Restaurant Papillon Rouge",
        "contact:tripadvisor": "Papillon Rouge",
        "craft": "caterer",
        "cuisine": "breakfast;brunch;diner;dessert;lunch",
        "drink:beer": "yes",
        "drink:wine": "yes",
        "hookah": "yes",
        "mobile": "066 30 30 10 / 077 22 22 24",
        "name": "Papillon rouge",
        "outdoor_seating": "yes",
        "outdoor_seating:comfort": "cushion_chair",
        "reservation": "yes",
        "source": "survey",
        "sport": "kitesurfing",
        "takeaway": "yes",
        "toilets": "yes",
        "toilets:access": "customers",
        "toilets:wheelchair": "yes",
        "wheelchair": "yes"
      }
    },
    {
      "type": "node",
      "id": 12157549097,
      "lat": 44.730997,
      "lon": 3.8285336,
      "tags": {
        "description": "Adapté aux vents N, NO",
        "leisure": "pitch",
        "name": "Mas d'Armand",
        "sport": "kitesurfing",
        "surface": "ground"
      }
    },
    {
      "type": "node",
      "id": 12157586112,
      "lat": 44.7520115,
      "lon": 3.7865563,
      "tags": {
        "description": "Adapté aux vents S, SE . Navigation au vent des bouées jaunes . Réserve de pêche interdite à la navigation .",
        "leisure": "pitch",
        "name": "La Presqu'île",
        "sport": "kitesurfing",
        "surface": "ground"
      }
    },
    {
      "type": "node",
      "id": 12407041259,
      "lat": 37.886189,
      "lon": 12.4710898,
      "tags": {
        "sport": "kitesurfing"
      }
    },
    {
      "type": "node",
      "id": 12407041266,
      "lat": 37.8493811,
      "lon": 12.4689406,
      "tags": {
        "sport": "kitesurfing"
      }
    },
    {
      "type": "node",
      "id": 12512224988,
      "lat": -41.0804147,
      "lon": -71.185232,
      "tags": {
        "club": "sport",
        "name": "Kitesurf",
        "sport": "kitesurfing"
      }
    },
    {
      "type": "node",
      "id": 12818896948,
      "lat": 53.6455696,
      "lon": 8.4926409,
      "tags": {
        "leisure": "pitch",
        "sport": "kitesurfing"
      }
    },
    {
      "type": "node",
      "id": 13074050869,
      "lat": 10.9404862,
      "lon": 108.1931081,
      "tags": {
        "addr:housenumber": "14",
        "addr:street": "Nguyễn Đình Chiểu",
        "check_date": "2025-08-16",
        "contact:instagram": "https://www.instagram.com/muinebay_kiteschool",
        "contact:whatsapp": "+84964878989",
        "leisure": "sports_centre",
        "name": "Mui Ne Bay Kite School",
        "phone": "+84 964878989",
        "sport": "kitesurfing"
      }
    },
    {
      "type": "node",
      "id": 13116136131,
      "lat": -8.8906258,
      "lon": 116.2784632,
      "tags": {
        "check_date": "2025-09-03",
        "contact:instagram": "https://www.instagram.com/Oceanaddictslombok",
        "name": "Ocean Addicts",
        "phone": "+62 813-5332-5630",
        "shop": "rental",
        "sport": "kitesurfing",
        "website": "https://oceanaddictslombok.com/foil-boarding/"
      }
    },
    {
      "type": "node",
      "id": 13123697769,
      "lat": 46.607459,
      "lon": -1.8534727,
      "tags": {
        "club": "sport",
        "email": "Kiteclubbretignollais@gmail.com",
        "facebook": "https://www.facebook.com/kiteclubbretignollais85/",
        "instagram": "https://www.instagram.com/Kiteclubbretignollais/",
        "name": "Kite Club Btétignollais",
        "sport": "kitesurfing"
      }
    },
    {
      "type": "node",
      "id": 13146732021,
      "lat": 27.4350652,
      "lon": 33.6591911,
      "tags": {
        "name": "Riah Kite Academy - Station",
        "rental": "kitesurfing",
        "shop": "water_sports",
        "sport": "kitesurfing",
        "website": "https://riahkiteacademy.com"
      }
    }
    ,{
      "type": "node",
      "id": 117111928,
      "lat": 51.22755,
      "lon": 12.4549486,
      "tags": {
        "sport": "surfing"
      }
    },
    {
      "type": "node",
      "id": 247187558,
      "lat": 47.762047,
      "lon": 13.0381277,
      "tags": {
        "leisure": "river_surfing",
        "name": "Almwelle",
        "sport": "surfing"
      }
    },
    {
      "type": "node",
      "id": 279690104,
      "lat": 35.3034699,
      "lon": 139.5526267,
      "tags": {
        "name": "Hirohama surfing school",
        "sport": "surfing"
      }
    },
    {
      "type": "node",
      "id": 281745106,
      "lat": 48.883412,
      "lon": 8.6972871,
      "tags": {
        "leisure": "pitch",
        "name": "blackforestwave",
        "operator": "blackforestwave e.V.",
        "sport": "surfing",
        "tourism": "attraction",
        "website": "https://blackforestwave.de/"
      }
    },
    {
      "type": "node",
      "id": 293673693,
      "lat": 10.73334,
      "lon": 92.36668,
      "tags": {
        "name": "Jackson Creek",
        "sport": "surfing",
        "tourism": "attraction"
      }
    },
    {
      "type": "node",
      "id": 401869379,
      "lat": 47.3558652,
      "lon": 8.3404815,
      "tags": {
        "description": "Stehende Surfwelle im Fluss",
        "name": "Bremgartner Welle",
        "rapids": "2;3",
        "sport": "surfing",
        "tourism": "attraction",
        "waterway": "rapids",
        "whitewater": "playspot"
      }
    },
    {
      "type": "node",
      "id": 471487588,
      "lat": 54.0884807,
      "lon": 10.8754251,
      "tags": {
        "name": "Windsurfingclub Neustadt/Ostholstein e.V.",
        "sport": "surfing",
        "website": "http://www.windsurfingclub-neustadt-pelzerhaken.de"
      }
    },
    {
      "type": "node",
      "id": 490723491,
      "lat": 59.4256061,
      "lon": 24.342363,
      "tags": {
        "sport": "surfing"
      }
    },
    {
      "type": "node",
      "id": 665893503,
      "lat": 38.5365787,
      "lon": -105.9888671,
      "tags": {
        "sport": "surfing",
        "waterway": "rapids"
      }
    },
    {
      "type": "node",
      "id": 670699720,
      "lat": 16.2409545,
      "lon": -61.3306582,
      "tags": {
        "leisure": "sport",
        "sport": "surfing"
      }
    },
    {
      "type": "node",
      "id": 734887621,
      "lat": 52.1597508,
      "lon": -7.1408186,
      "tags": {
        "leisure": "sports_centre",
        "name": "Tramore Surf Shop And School",
        "phone": "+353-51-391011",
        "sport": "surfing",
        "website": "https://www.tramoresurfshop.com/"
      }
    },
    {
      "type": "node",
      "id": 734889663,
      "lat": 52.1609941,
      "lon": -7.1404764,
      "tags": {
        "leisure": "sports_centre",
        "name": "Oceanics Surf School",
        "sport": "surfing"
      }
    },
    {
      "type": "node",
      "id": 804088954,
      "lat": 52.1388214,
      "lon": -7.3707735,
      "tags": {
        "leisure": "sports_centre",
        "name": "Bunmahon Surf School",
        "sport": "surfing",
        "wheelchair": "yes"
      }
    },
    {
      "type": "node",
      "id": 897913777,
      "lat": 43.6254414,
      "lon": -116.234647,
      "tags": {
        "name": "Boise Whitewater Park",
        "sport": "surfing"
      }
    },
    {
      "type": "node",
      "id": 913120839,
      "lat": 43.3723576,
      "lon": -1.7743576,
      "tags": {
        "addr:housenumber": "12",
        "club": "yes",
        "name": "Onaka",
        "sport": "surfing"
      }
    },
    {
      "type": "node",
      "id": 926022737,
      "lat": -36.9556949,
      "lon": 174.4764944,
      "tags": {
        "addr:housenumber": "122",
        "addr:street": "Seaview Road",
        "addr:suburb": "Piha",
        "name": "Piha Surf Shop",
        "ref:linz:address_id": "951387",
        "shop": "sports",
        "sport": "surfing",
        "website": "https://www.pihasurf.co.nz/"
      }
    },
    {
      "type": "node",
      "id": 940975104,
      "lat": 51.8587202,
      "lon": 8.3459539,
      "tags": {
        "sport": "surfing"
      }
    },
    {
      "type": "node",
      "id": 1128854959,
      "lat": 36.9605191,
      "lon": -122.0240332,
      "tags": {
        "access": "children",
        "fixme": "I've never seen \"access=children\" on a playground before; seems superfluous",
        "leisure": "playground",
        "name": "Cowell's Beach Children's Surfing Area",
        "sport": "surfing"
      }
    },
    {
      "type": "node",
      "id": 1145742412,
      "lat": 32.8405908,
      "lon": -17.1398067,
      "tags": {
        "leisure": "sport",
        "sport": "surfing"
      }
    },
    {
      "type": "node",
      "id": 1214950425,
      "lat": 45.0037667,
      "lon": -1.2009218,
      "tags": {
        "name": "La Petite Boutique de la BBH",
        "shop": "sports",
        "source": "survey",
        "sport": "surfing"
      }
    },
    {
      "type": "node",
      "id": 1253174398,
      "lat": 45.0013025,
      "lon": -1.1996016,
      "tags": {
        "check_date": "2024-08-18",
        "name": "California Street",
        "shop": "sports",
        "source": "survey",
        "sport": "surfing"
      }
    },
    {
      "type": "node",
      "id": 1253174418,
      "lat": 45.0012975,
      "lon": -1.199817,
      "tags": {
        "check_date": "2024-08-18",
        "name": "Billabong",
        "shop": "sports",
        "source": "survey",
        "sport": "surfing"
      }
    },
    {
      "type": "node",
      "id": 1257101606,
      "lat": 39.2674996,
      "lon": -9.3349633,
      "tags": {
        "name": "Backdoor Surf Shop",
        "shop": "sports",
        "sport": "surfing",
        "website": "https://www.backdoorsurf.com/"
      }
    },
    {
      "type": "node",
      "id": 1257101614,
      "lat": 39.2675501,
      "lon": -9.3349363,
      "tags": {
        "name": "Ripar Surf School",
        "sport": "surfing",
        "website": "https://www.riparsurfschool.com/"
      }
    },
    {
      "type": "node",
      "id": 1257101633,
      "lat": 39.2674516,
      "lon": -9.335003,
      "tags": {
        "name": "Global Surf School",
        "sport": "surfing",
        "website": "https://www.globalsurfschool.com/"
      }
    },
    {
      "type": "node",
      "id": 1262132779,
      "lat": 37.7589632,
      "lon": -0.8261595,
      "tags": {
        "shop": "sports",
        "sport": "surfing"
      }
    },
    {
      "type": "node",
      "id": 1263265401,
      "lat": 54.2769496,
      "lon": 13.7024505,
      "tags": {
        "sport": "surfing"
      }
    },
    {
      "type": "node",
      "id": 1271546015,
      "lat": 45.0076871,
      "lon": -1.1951819,
      "tags": {
        "leisure": "sports_centre",
        "name": "Big Mama Surf School",
        "source": "survey",
        "sport": "surfing"
      }
    },
    {
      "type": "node",
      "id": 1304997236,
      "lat": 53.8512393,
      "lon": 10.6940585,
      "tags": {
        "name": "Surf-Center Lübeck",
        "opening_hours": "Mo-Fr 10:00-18:00; Sa 10:00-14:00; PH closed",
        "shop": "sports",
        "sport": "surfing",
        "website": "https://www.surf-center.de/",
        "wheelchair": "limited",
        "wheelchair:step_height": "20"
      }
    },
    {
      "type": "node",
      "id": 1363859132,
      "lat": 54.4454279,
      "lon": 11.0898101,
      "tags": {
        "leisure": "sports_centre",
        "name": "Surfspot Lemkenhafen",
        "old_website": "http://surfspot-lemkenhafen.de/",
        "sport": "surfing",
        "website": "https://surfspot-fehmarn.de/",
        "wheelchair": "yes"
      }
    },
    {
      "type": "node",
      "id": 1364268526,
      "lat": 52.5016459,
      "lon": 8.3523078,
      "tags": {
        "name": "Surfeinstiegstelle Rohrdommel",
        "natural": "beach",
        "sport": "surfing",
        "surface": "grass"
      }
    },
    {
      "type": "node",
      "id": 1365421122,
      "lat": 43.6686433,
      "lon": -1.3823186,
      "tags": {
        "addr:city": "Soorts-Hossegor",
        "addr:housenumber": "407",
        "addr:postcode": "40150",
        "addr:street": "Avenue de la Tuilerie",
        "name": "Rip Curl - Magasin Technique",
        "ref:FR:CRTA": "A0013AQU040V503K8F",
        "shop": "sports",
        "sport": "surfing"
      }
    },
    {
      "type": "node",
      "id": 1365421211,
      "lat": 43.6709427,
      "lon": -1.3896718,
      "tags": {
        "addr:city": "Soorts-Hossegor",
        "addr:housenumber": "128",
        "addr:postcode": "40150",
        "addr:street": "Avenue des Charpentiers",
        "brand": "Billabong",
        "brand:wikidata": "Q862718",
        "brand:wikipedia": "en:Billabong (clothing)",
        "clothes": "men;women",
        "name": "Billabong Outlet",
        "opening_hours": "Mo-Sa 10:00-19:00",
        "phone": "+33558416053",
        "ref:FR:CRTA": "A0013AQU040V503K9D",
        "shop": "clothes",
        "sport": "surfing",
        "website": "https://www.billabong.fr/",
        "wheelchair": "limited"
      }
    },
    {
      "type": "node",
      "id": 1390570470,
      "lat": 48.6934819,
      "lon": -4.0873542,
      "tags": {
        "name": "Mogueric",
        "sport": "surfing"
      }
    },
    {
      "type": "node",
      "id": 1411422107,
      "lat": -8.9152559,
      "lon": 116.3655147,
      "tags": {
        "alt_name": "Inside",
        "name": "Gerupuk Inside",
        "sport": "surfing",
        "tourism": "attraction"
      }
    },
    {
      "type": "node",
      "id": 1411423406,
      "lat": -8.9109076,
      "lon": 116.3548215,
      "tags": {
        "name": "Don Don",
        "name:en": "Don don",
        "sport": "surfing",
        "tourism": "attraction"
      }
    },
    {
      "type": "node",
      "id": 1412916674,
      "lat": -8.8768448,
      "lon": 116.1569015,
      "tags": {
        "name": "Mawi",
        "sport": "surfing"
      }
    },
    {
      "type": "node",
      "id": 1419294504,
      "lat": 47.8371723,
      "lon": -4.3457196,
      "tags": {
        "leisure": "sports_centre",
        "name": "École de Surf de Bretagne (La Torche)",
        "phone": "+33 2 98 58 53 80",
        "sport": "surfing",
        "website": "https://www.twenty-nine.com/surfcamp/"
      }
    },
    {
      "type": "node",
      "id": 1422600097,
      "lat": -17.5343497,
      "lon": -149.58443,
      "tags": {
        "name": "La digue Reef",
        "natural": "reef",
        "sport": "surfing"
      }
    },
    {
      "type": "node",
      "id": 1422606718,
      "lat": -17.8667261,
      "lon": -149.2537018,
      "tags": {
        "name": "Teahupoo Reef",
        "sport": "surfing",
        "tourism": "yes"
      }
    },
    {
      "type": "node",
      "id": 1436709021,
      "lat": 59.9128788,
      "lon": 10.7289208,
      "tags": {
        "check_date": "2023-06-25",
        "name": "Surfesjappa",
        "shop": "sports",
        "sport": "surfing",
        "website": "https://www.srfsnosk8.no"
      }
    },
    {
      "type": "node",
      "id": 1453290633,
      "lat": -27.6844541,
      "lon": -48.4893397,
      "tags": {
        "amenity": "college",
        "name": "Escola de Surf",
        "operator:type": "private",
        "sport": "surfing",
        "wheelchair": "no"
      }
    },
    {
      "type": "node",
      "id": 1554403326,
      "lat": -27.6896101,
      "lon": -48.4821701,
      "tags": {
        "amenity": "college",
        "name": "Escola de Surf Paz na Terra",
        "sport": "surfing",
        "training": "sport"
      }
    },
    {
      "type": "node",
      "id": 1599035227,
      "lat": 36.9593054,
      "lon": -121.9643858,
      "tags": {
        "leisure": "pitch",
        "name": "The Hook",
        "sport": "surfing"
      }
    },
    {
      "type": "node",
      "id": 1631852182,
      "lat": -31.5382301,
      "lon": 159.081916,
      "tags": {
        "attraction": "sport",
        "name": "Surfing",
        "sport": "surfing",
        "tourism": "attraction"
      }
    },
    {
      "type": "node",
      "id": 1740710728,
      "lat": 45.7555179,
      "lon": 10.4977572,
      "tags": {
        "contact:phone": "+39 339 4669945",
        "contact:website": "https://www.surfpoint.it/",
        "name": "Surfpoint Lago d'Idro",
        "shop": "surf",
        "sport": "surfing"
      }
    },
    {
      "type": "node",
      "id": 1760533342,
      "lat": 14.7139776,
      "lon": -17.4918381,
      "tags": {
        "name": "Ouakam",
        "sport": "surfing"
      }
    },
    {
      "type": "node",
      "id": 1846283752,
      "lat": -27.6702029,
      "lon": -48.4821558,
      "tags": {
        "name": "Local",
        "shop": "sports",
        "sport": "surfing"
      }
    },
    {
      "type": "node",
      "id": 1849220876,
      "lat": 20.8861867,
      "lon": -156.453016,
      "tags": {
        "name": "Hawaiian Island Surf and Sport",
        "shop": "sports",
        "sport": "surfing"
      }
    },
    {
      "type": "node",
      "id": 1923601679,
      "lat": -22.9546411,
      "lon": -43.0282406,
      "tags": {
        "name": "TSN",
        "shop": "sports",
        "sport": "surfing"
      }
    },
    {
      "type": "node",
      "id": 1927858966,
      "lat": -21.2627655,
      "lon": 55.3336916,
      "tags": {
        "leisure": "sports_centre",
        "name": "École de surf du sud",
        "sport": "surfing"
      }
    },
    {
      "type": "node",
      "id": 1946986663,
      "lat": -22.9751464,
      "lon": -43.0363039,
      "tags": {
        "sport": "surfing"
      }
    },
    {
      "type": "node",
      "id": 1952405022,
      "lat": 12.8516884,
      "lon": 100.9000444,
      "tags": {
        "building": "yes",
        "leisure": "sports_centre",
        "name": "Demon Dayz Wind Surfing Centre",
        "phone": "+66 89 0918203",
        "source": "personal check",
        "sport": "surfing",
        "website": "http://www.windsurfthailand.com/"
      }
    },
    {
      "type": "node",
      "id": 1966226206,
      "lat": 16.3363288,
      "lon": -61.3621452,
      "tags": {
        "leisure": "sports_centre",
        "name": "Spot de Damencourt",
        "sport": "surfing"
      }
    },
    {
      "type": "node",
      "id": 2008283385,
      "lat": 52.5361291,
      "lon": 13.3770156,
      "tags": {
        "addr:city": "Berlin",
        "addr:country": "DE",
        "addr:housename": "Surfshop Berlin",
        "addr:housenumber": "1",
        "addr:postcode": "10115",
        "addr:street": "Wöhlertstraße",
        "addr:suburb": "Mitte",
        "contact:phone": "+49 30 2834798",
        "name": "Surfshop Berlin",
        "opening_hours": "Fr 12:00-18:30; Sa 10:00-14:00",
        "operator": "Funsport Sportartikel GmbH",
        "shop": "sports",
        "sport": "surfing",
        "website": "https://www.surfshop-berlin.de/",
        "wheelchair": "yes"
      }
    },
    {
      "type": "node",
      "id": 2052379635,
      "lat": 10.948622,
      "lon": 108.20703,
      "tags": {
        "leisure": "sports_centre",
        "name": "AK Kite Surf Center",
        "sport": "surfing"
      }
    },
    {
      "type": "node",
      "id": 2060126097,
      "lat": 28.5224517,
      "lon": -16.1541066,
      "tags": {
        "sport": "surfing"
      }
    },
    {
      "type": "node",
      "id": 2060217568,
      "lat": 28.4191363,
      "lon": -16.5403478,
      "tags": {
        "sport": "surfing"
      }
    },
    {
      "type": "node",
      "id": 2108777938,
      "lat": -16.7233705,
      "lon": 145.6432657,
      "tags": {
        "name": "Ellis Beach Surf Life Saving Club",
        "sport": "surfing"
      }
    },
    {
      "type": "node",
      "id": 2135448855,
      "lat": 52.1612939,
      "lon": -7.1409979,
      "tags": {
        "addr:city": "Tramore",
        "addr:country": "IE",
        "addr:county": "Waterford",
        "addr:housename": "The Beach House",
        "leisure": "sports_centre",
        "name": "Freedom Surf School",
        "sport": "surfing",
        "website": "https://www.freedomsurfschool.com/"
      }
    },
    {
      "type": "node",
      "id": 2161721532,
      "lat": 43.3249046,
      "lon": -1.9757868,
      "tags": {
        "fixme": "I don't know how to propperly tag this, since it is a surf school",
        "name": "Pukas Surf Eskola",
        "shop": "yes",
        "sport": "surfing"
      }
    },
    {
      "type": "node",
      "id": 2185857548,
      "lat": 39.7469918,
      "lon": -8.9353048,
      "tags": {
        "name": "H2O Surfshop",
        "shop": "outdoor",
        "sport": "surfing"
      }
    },
    {
      "type": "node",
      "id": 2224245257,
      "lat": 11.4531937,
      "lon": -86.1033567,
      "tags": {
        "bar": "yes",
        "email": "info@magnificrockpopoyo.com",
        "internet_access": "wlan",
        "internet_access:fee": "no",
        "name": "Magnific Rock Hotel",
        "phone": "+505-8237-7417 / 8916-6916 / 8608-5818",
        "phone:mobile": "+505-86 085 818",
        "restaurant": "yes",
        "source": "survey",
        "sport": "surfing",
        "tourism": "hotel",
        "website": "http://www.magnificrockpopoyo.com"
      }
    },
    {
      "type": "node",
      "id": 2255892158,
      "lat": 48.8391592,
      "lon": 2.2780349,
      "tags": {
        "contact:city": "Paris",
        "contact:housenumber": "80",
        "contact:postcode": "75015",
        "contact:street": "Rue Balard",
        "contact:website": "http://www.auspot-shop.fr/boutique/liste_rayons.cfm",
        "name": "Au Spot",
        "shop": "sports",
        "sport": "surfing"
      }
    },
    {
      "type": "node",
      "id": 2295377489,
      "lat": 4.1720222,
      "lon": 73.5178875,
      "tags": {
        "name": "Raalhugandu - Surfing Beach",
        "natural": "beach",
        "sport": "surfing"
      }
    },
    {
      "type": "node",
      "id": 2306397118,
      "lat": -20.4672027,
      "lon": 57.3057436,
      "tags": {
        "leisure": "pitch",
        "name": "One Eye",
        "sport": "surfing"
      }
    },
    {
      "type": "node",
      "id": 2330850543,
      "lat": 36.9713534,
      "lon": -121.9439789,
      "tags": {
        "leisure": "pitch",
        "name": "Bombora",
        "sport": "surfing"
      }
    },
    {
      "type": "node",
      "id": 2330850545,
      "lat": 36.9545866,
      "lon": -121.9709742,
      "tags": {
        "leisure": "pitch",
        "name": "First Peak",
        "sport": "surfing"
      }
    },
    {
      "type": "node",
      "id": 2330850546,
      "lat": 36.9540996,
      "lon": -121.9767453,
      "tags": {
        "leisure": "pitch",
        "name": "Little Wind-an-Sea",
        "sport": "surfing"
      }
    },
    {
      "type": "node",
      "id": 2330850547,
      "lat": 36.9755268,
      "lon": -121.940728,
      "tags": {
        "leisure": "pitch",
        "name": "New Brighton Reef",
        "sport": "surfing"
      }
    },
    {
      "type": "node",
      "id": 2330850550,
      "lat": 36.9555205,
      "lon": -121.9702184,
      "tags": {
        "leisure": "pitch",
        "name": "Second Peak",
        "sport": "surfing"
      }
    },
    {
      "type": "node",
      "id": 2330850551,
      "lat": 36.9535308,
      "lon": -121.9728983,
      "tags": {
        "leisure": "pitch",
        "name": "Sewer Peak",
        "sport": "surfing"
      }
    },
    {
      "type": "node",
      "id": 2330850552,
      "lat": 36.9609104,
      "lon": -121.9624799,
      "tags": {
        "leisure": "pitch",
        "name": "Shark's Cove",
        "sport": "surfing"
      }
    },
    {
      "type": "node",
      "id": 2330850553,
      "lat": 36.9539085,
      "lon": -121.9748546,
      "tags": {
        "leisure": "pitch",
        "name": "Suicide's",
        "sport": "surfing"
      }
    },
    {
      "type": "node",
      "id": 2330850554,
      "lat": 36.9710845,
      "lon": -121.9486795,
      "tags": {
        "leisure": "pitch",
        "name": "Toes Over",
        "sport": "surfing"
      }
    },
    {
      "type": "node",
      "id": 2330850555,
      "lat": 36.9669527,
      "lon": -121.956576,
      "tags": {
        "leisure": "pitch",
        "name": "Trees",
        "sport": "surfing"
      }
    },
    {
      "type": "node",
      "id": 2330850564,
      "lat": 36.9574939,
      "lon": -121.9677716,
      "tags": {
        "leisure": "pitch",
        "name": "38th",
        "sport": "surfing"
      }
    },
    {
      "type": "node",
      "id": 2353521498,
      "lat": 42.0341024,
      "lon": 11.9211106,
      "tags": {
        "name": "Banzai",
        "sport": "surfing"
      }
    },
    {
      "type": "node",
      "id": 2353521505,
      "lat": 42.0389776,
      "lon": 11.9021766,
      "tags": {
        "name": "Cala della Morte",
        "sport": "surfing"
      }
    },
    {
      "type": "node",
      "id": 2353521511,
      "lat": 42.0317892,
      "lon": 11.9271299,
      "tags": {
        "name": "Off the Wall",
        "sport": "surfing"
      }
    },
    {
      "type": "node",
      "id": 2353521515,
      "lat": 42.0376538,
      "lon": 11.8783897,
      "tags": {
        "name": "Roccetta",
        "sport": "surfing"
      }
    },
    {
      "type": "node",
      "id": 2368971235,
      "lat": -30.8635868,
      "lon": 30.3699299,
      "tags": {
        "name": "Surf Action",
        "phone": "+27393173604",
        "sport": "surfing"
      }
    },
    {
      "type": "node",
      "id": 2377016417,
      "lat": -4.3511492,
      "lon": 39.5633876,
      "tags": {
        "leisure": "sports_centre",
        "name": "H2Oextreme",
        "sport": "surfing"
      }
    },
    {
      "type": "node",
      "id": 2379212363,
      "lat": 11.0425833,
      "lon": -74.9192393,
      "tags": {
        "name": "Punta Roca",
        "place": "neighbourhood",
        "sport": "surfing"
      }
    },
    {
      "type": "node",
      "id": 2382209130,
      "lat": 51.3886054,
      "lon": 7.3946588,
      "tags": {
        "club": "sport",
        "contact:phone": "+49 2335 1045",
        "name": "Windsurfing und Segelclub Wetter 76 e.V. Bernd Barenberg",
        "sport": "surfing"
      }
    },
    {
      "type": "node",
      "id": 2391555935,
      "lat": -8.3626426,
      "lon": 116.0874484,
      "tags": {
        "amenity": "surf_school",
        "description": "Kite Surf school and watersport rental",
        "education": "surf_school",
        "name": "Gili Watersports",
        "rental": "yes",
        "sport": "surfing"
      }
    },
    {
      "type": "node",
      "id": 2407214857,
      "lat": 49.567889,
      "lon": 7.0813996,
      "tags": {
        "name": "S.A.L.T - Surfschule",
        "phone": "+49 800 9670796",
        "sport": "surfing",
        "website": "https://www.salt-surfschule.de"
      }
    },
    {
      "type": "node",
      "id": 2422682509,
      "lat": 42.0747336,
      "lon": 11.8048136,
      "tags": {
        "name": "Piccolo Paradiso",
        "sport": "surfing",
        "type": "reef",
        "wave": "left"
      }
    },
    {
      "type": "node",
      "id": 2427955514,
      "lat": 47.8590303,
      "lon": 16.8307714,
      "tags": {
        "addr:city": "Podersdorf am See",
        "addr:housenumber": "2",
        "addr:postcode": "7141",
        "addr:street": "An der Promenade",
        "contact:phone": "+43 660 680 6492",
        "contact:website": "http://www.move-surfstore.de/",
        "name": "Move Surfstore Podersdorf",
        "shop": "sports",
        "source": "geoimage.at, http://www.move-surfstore.de/",
        "sport": "surfing",
        "website": "http://www.move-surfstore.de/"
      }
    },
    {
      "type": "node",
      "id": 2433666785,
      "lat": 41.8535133,
      "lon": 12.1919504,
      "tags": {
        "club": "sport",
        "email": "info@fregenesurfclub.com",
        "name": "Fregene Surf Club",
        "sport": "surfing",
        "website": "http://www.fregenesurfclub.com/"
      }
    },
    {
      "type": "node",
      "id": 2463658243,
      "lat": 37.1135981,
      "lon": -8.7035,
      "tags": {
        "building": "yes",
        "name": "The Surf Experience",
        "sport": "surfing",
        "tourism": "guest_house",
        "website": "https://thesurfexperience.eu/"
      }
    },
    {
      "type": "node",
      "id": 2464275461,
      "lat": 35.8903832,
      "lon": 27.7753352,
      "tags": {
        "name": "Prasonisi Center",
        "shop": "sports",
        "sport": "surfing",
        "website": "https://www.prasonisicenter.com/"
      }
    },
    {
      "type": "node",
      "id": 2490688543,
      "lat": -8.3617626,
      "lon": 116.0404257,
      "tags": {
        "name": "Gili T Surfspot",
        "sport": "surfing"
      }
    },
    {
      "type": "node",
      "id": 2518181953,
      "lat": 10.5104695,
      "lon": -67.6079999,
      "tags": {
        "sport": "surfing"
      }
    },
    {
      "type": "node",
      "id": 2559834996,
      "lat": -30.1769963,
      "lon": -69.0995899,
      "tags": {
        "name": "windsurf and kite spot",
        "sport": "surfing"
      }
    },
    {
      "type": "node",
      "id": 2568012241,
      "lat": 41.3455167,
      "lon": -8.7533703,
      "tags": {
        "club": "sport",
        "name": "Aloha Surf & Sup School",
        "sport": "surfing"
      }
    },
    {
      "type": "node",
      "id": 2573653027,
      "lat": 12.3612564,
      "lon": -87.022822,
      "tags": {
        "name": "Shark Waves Surf School",
        "shop": "sports",
        "sport": "surfing"
      }
    },
    {
      "type": "node",
      "id": 2601036443,
      "lat": -34.033242,
      "lon": 24.935189,
      "tags": {
        "name": "Supertubes",
        "sport": "surfing",
        "wikidata": "Q123114530"
      }
    },
    {
      "type": "node",
      "id": 2645054132,
      "lat": -34.4244284,
      "lon": -72.0437832,
      "tags": {
        "name": "Caleta Los Piures",
        "natural": "bay",
        "sport": "surfing"
      }
    },
    {
      "type": "node",
      "id": 2657225145,
      "lat": -37.8193428,
      "lon": 174.827704,
      "tags": {
        "sport": "surfing"
      }
    },
    {
      "type": "node",
      "id": 2659396989,
      "lat": -20.4659773,
      "lon": 57.3170475,
      "tags": {
        "description": "Kite surfing",
        "leisure": "sports_centre",
        "name": "ION Club",
        "sport": "surfing"
      }
    },
    {
      "type": "node",
      "id": 2678338969,
      "lat": -8.4776013,
      "lon": 116.0361676,
      "tags": {
        "name": "Mangsit",
        "source": "survey",
        "source:date": "2013-12-20",
        "sport": "surfing"
      }
    },
    {
      "type": "node",
      "id": 2678339185,
      "lat": -8.5517834,
      "lon": 116.0677478,
      "tags": {
        "name": "Montong",
        "source": "survey",
        "source:date": "2013-12-20",
        "sport": "surfing"
      }
    },
    {
      "type": "node",
      "id": 2714667240,
      "lat": 52.0665283,
      "lon": 4.3468578,
      "tags": {
        "addr:city": "'s-Gravenhage",
        "addr:housenumber": "26",
        "addr:postcode": "2516AH",
        "addr:street": "Saturnusstraat",
        "leisure": "sports_centre",
        "name": "SurfPoel",
        "note": "Indoor surf-golfslagbad opent medio 2023.",
        "source": "BAG",
        "source:date": "2014-02-11",
        "sport": "surfing",
        "website": "https://surfpoel.nl/"
      }
    },
    {
      "type": "node",
      "id": 2737126520,
      "lat": 48.5305734,
      "lon": -4.7479326,
      "tags": {
        "email": "sweetspot@hotmail.fr",
        "leisure": "sports_centre",
        "name": "Sweetspot - École de surf",
        "phone": "+33 6 86 14 18 69",
        "sport": "surfing",
        "website": "http://sweetspotsurf.com/"
      }
    },
    {
      "type": "node",
      "id": 2785641712,
      "lat": 44.4489986,
      "lon": -1.2569047,
      "tags": {
        "name": "La nord",
        "note": "level : vert good time : bon à mi-marée, surfable entre 1m et 2m avec vent faible ou vent d'est info pratique : bon pour débuter - cours de surf en face - trop de monde l'été",
        "sport": "surfing",
        "wave": "guide"
      }
    },
    {
      "type": "node",
      "id": 2803770598,
      "lat": 15.7556413,
      "lon": 121.5730994,
      "tags": {
        "source": "Schadow1 Expeditions",
        "sport": "surfing"
      }
    },
    {
      "type": "node",
      "id": 2803771712,
      "lat": 15.757939,
      "lon": 121.5712352,
      "tags": {
        "source": "Schadow1 Expeditions",
        "sport": "surfing"
      }
    },
    {
      "type": "node",
      "id": 2803771713,
      "lat": 15.7599169,
      "lon": 121.5697828,
      "tags": {
        "source": "Schadow1 Expeditions",
        "sport": "surfing"
      }
    },
    {
      "type": "node",
      "id": 2803771714,
      "lat": 15.7615138,
      "lon": 121.5687373,
      "tags": {
        "source": "Schadow1 Expeditions",
        "sport": "surfing"
      }
    },
    {
      "type": "node",
      "id": 2803771715,
      "lat": 15.7629028,
      "lon": 121.5678185,
      "tags": {
        "source": "Schadow1 Expeditions",
        "sport": "surfing"
      }
    },
    {
      "type": "node",
      "id": 2843803868,
      "lat": -29.9826244,
      "lon": 153.2303116,
      "tags": {
        "club": "sport",
        "name": "Red Rock-Corindi Surf Lifesaving Club",
        "sport": "surfing"
      }
    },
    {
      "type": "node",
      "id": 2883958515,
      "lat": 26.8437623,
      "lon": 33.9969474,
      "tags": {
        "leisure": "sports_centre",
        "sport": "surfing"
      }
    },
    {
      "type": "node",
      "id": 2897601855,
      "lat": 52.1324422,
      "lon": 4.6811347,
      "tags": {
        "addr:city": "Alphen aan den Rijn",
        "addr:housenumber": "30",
        "addr:postcode": "2406LB",
        "addr:street": "Verlengde Aarkade",
        "club": "sport",
        "name": "Windsurfvereniging Zegerplas",
        "source": "BAG",
        "source:date": "2014-06-03",
        "sport": "surfing",
        "website": "https://www.wsvzegerplas.nl/"
      }
    },
    {
      "type": "node",
      "id": 2945314409,
      "lat": -12.1290747,
      "lon": -77.0366698,
      "tags": {
        "check_date": "2023-04-09",
        "name": "Stalls for Renting Surf Boards / Lessons",
        "shop": "surf",
        "sport": "surfing"
      }
    },
    {
      "type": "node",
      "id": 2963319963,
      "lat": -42.311775,
      "lon": 173.7522892,
      "tags": {
        "name": "Graveyard Surf",
        "natural": "beach",
        "sport": "surfing"
      }
    },
    {
      "type": "node",
      "id": 2964049298,
      "lat": 52.1976037,
      "lon": 4.7274257,
      "tags": {
        "addr:city": "Ter Aar",
        "addr:housenumber": "14",
        "addr:postcode": "2461EA",
        "addr:street": "Geerweg",
        "leisure": "sports_centre",
        "name": "Surfclub Ter Aar",
        "source": "BAG",
        "source:date": "2014-07-14",
        "sport": "surfing",
        "website": "https://surfclubteraar.nl/"
      }
    },
    {
      "type": "node",
      "id": 2987458633,
      "lat": 43.8766748,
      "lon": -1.3029698,
      "tags": {
        "check_date": "2024-06-05",
        "name": "OnePalm",
        "shop": "surf",
        "sport": "surfing"
      }
    },
    {
      "type": "node",
      "id": 2987458833,
      "lat": 43.8773459,
      "lon": -1.302425,
      "tags": {
        "check_date": "2024-06-05",
        "check_date:opening_hours": "2023-01-30",
        "name": "Natura - École Surf Shop",
        "opening_hours:signed": "no",
        "shop": "surf",
        "sport": "surfing"
      }
    },
    {
      "type": "node",
      "id": 3013041557,
      "lat": -19.9328788,
      "lon": -40.1156751,
      "tags": {
        "name": "Pico de Surf do Lodinho",
        "sport": "surfing"
      }
    },